cnpj,empresa,setor,cidade,regiao,capital_social,investimento_inicial,anos_atividade,lat,lon
10.205/0001-77,Market 338 Logística,Logística,Castanhal,Pará,445483.42,306800.11,5,-1.3010494568665538,-47.932395650380045
39.972/0001-83,Market 750 Alimentação,Alimentação,Ipixuna do Pará,Pará,34683.83,25126.14,7,-2.555972755831472,-47.49186564171671
20.623/0001-24,Market 245 Logística,Logística,Melgaço,Pará,855166.17,343199.2,9,-1.6626775438461818,-50.71480778608693
66.687/0001-93,Market 550 Vestuário,Vestuário,Barcarena,Pará,887895.45,423064.43,11,-1.5100104849156712,-48.62810699418089
74.210/0001-83,Market 899 Saúde,Saúde,Dom Eliseu,Pará,64480.42,60961.67,1,-4.292582511103764,-47.49475571783868
12.732/0001-44,Market 404 Vestuário,Vestuário,Santa Maria do Pará,Pará,421587.91,159962.95,11,-1.359626532614275,-47.57604464388354
31.501/0001-22,Market 766 Serviços (MEI),Serviços (MEI),Prainha,Pará,36551.21,19902.26,6,-1.811153332472249,-53.47824543018615
64.241/0001-97,Market 919 Vestuário,Vestuário,Quatipuru,Pará,414453.76,303252.85,5,-0.8948325555769862,-47.00032809078749
33.184/0001-80,Market 398 Vestuário,Vestuário,Benevides,Pará,655088.68,337233.48,12,-1.3567003951411154,-48.24514826391996
65.159/0001-21,Market 737 Alimentação,Alimentação,Jacundá,Pará,120128.16,72247.42,8,-4.4537950747650745,-49.12273333324286
93.104/0001-75,Market 711 Serviços (MEI),Serviços (MEI),Bagre,Pará,17715.63,11994.9,5,-1.9026721245052838,-50.170982583261356
11.683/0001-79,Market 773 Saúde,Saúde,Santana do Araguaia,Pará,748704.03,281398.73,10,-9.445944489789726,-50.335380758694264
75.942/0001-25,Market 844 Saúde,Saúde,Curralinho,Pará,174553.23,98790.27,14,-1.8121610225248432,-49.79778637003664
23.886/0001-10,Market 610 Tecnologia,Tecnologia,Abel Figueiredo,Pará,55142.66,34061.62,12,-4.954974204494878,-48.401808646549235
21.577/0001-83,Market 674 Alimentação,Alimentação,Cachoeira do Piriá,Pará,228624.92,157060.96,4,-1.755322206859154,-46.5459111908999
69.415/0001-59,Market 752 Saúde,Saúde,São Sebastião da Boa Vista,Pará,621842.62,251679.66,13,-1.7217150629746698,-49.54682942279505
48.757/0001-79,Market 640 Alimentação,Alimentação,Medicilândia,Pará,349091.86,285238.47,4,-3.451479341492733,-52.884571832727204
44.815/0001-79,Market 721 Vestuário,Vestuário,Abel Figueiredo,Pará,711636.07,434715.88,4,-4.953136293651173,-48.39886271279336
53.344/0001-22,Market 859 Serviços (MEI),Serviços (MEI),Santa Izabel do Pará,Pará,5373.06,2915.25,5,-1.2917789706360068,-48.15958084915951
10.477/0001-41,Market 753 Serviços (MEI),Serviços (MEI),Dom Eliseu,Pará,34812.87,18182.23,7,-4.290490243775947,-47.49868162267002
58.280/0001-54,Market 954 Logística,Logística,Tailândia,Pará,335753.8,287801.75,2,-2.9437391030249187,-48.95401861715837
85.771/0001-62,Market 964 Tecnologia,Tecnologia,Palestina do Pará,Pará,630135.36,377588.36,4,-5.736254062957067,-48.31219883979524
98.579/0001-16,Market 766 Logística,Logística,Quatipuru,Pará,204161.89,70206.74,14,-0.8881370140997739,-47.000603157968406
93.237/0001-69,Market 610 Logística,Logística,Abel Figueiredo,Pará,718835.46,386548.55,9,-4.950109057905073,-48.40436679596079
23.548/0001-47,Market 163 Vestuário,Vestuário,São Domingos do Araguaia,Pará,667120.79,401064.73,5,-5.531895969903221,-48.72802185583967
19.324/0001-98,Market 810 Saúde,Saúde,Vigia,Pará,170238.08,104314.94,7,-0.8612968040581059,-48.150323809193324
52.340/0001-12,Market 803 Alimentação,Alimentação,Mocajuba,Pará,349702.21,305637.99,1,-2.587694340942284,-49.50007391423753
59.443/0001-93,Market 610 Vestuário,Vestuário,Conceição do Araguaia,Pará,142416.33,133265.58,1,-8.2545058432131,-49.26132988246236
91.892/0001-74,Market 137 Tecnologia,Tecnologia,São João de Pirabas,Pará,234642.6,140816.54,9,-0.7666886693253405,-47.16399556169225
32.541/0001-74,Market 955 Serviços (MEI),Serviços (MEI),Abel Figueiredo,Pará,37658.16,24212.52,5,-4.958723795708604,-48.40412240896122
32.124/0001-35,Market 524 Serviços (MEI),Serviços (MEI),Baião,Pará,2411.61,1542.22,5,-2.800753789512545,-49.67762578144666
52.404/0001-93,Market 164 Serviços (MEI),Serviços (MEI),Aurora do Pará,Pará,27486.7,12641.23,13,-2.1293305438779284,-47.55829954641319
61.458/0001-47,Market 320 Alimentação,Alimentação,Itaituba,Pará,620654.69,439031.64,3,-4.271747845416291,-55.988451034656556
41.716/0001-98,Market 198 Vestuário,Vestuário,Primavera,Pará,188595.05,160739.13,1,-0.9415696422691012,-47.09765744460853
22.284/0001-64,Market 485 Tecnologia,Tecnologia,Tracuateua,Pará,152954.78,127053.84,2,-1.0802894149845959,-46.91283419688335
80.823/0001-71,Market 632 Logística,Logística,Viseu,Pará,319637.9,130380.43,14,-1.1914299495039977,-46.139644936211916
16.609/0001-98,Market 466 Logística,Logística,Maracanã,Pará,353662.63,260719.24,5,-0.7684168045033665,-47.44521932649542
38.585/0001-71,Market 259 Saúde,Saúde,Salvaterra,Pará,362597.92,220748.93,6,-0.7513518496519851,-48.51145685209189
32.684/0001-54,Market 591 Tecnologia,Tecnologia,Magalhães Barata,Pará,592288.21,411288.0,7,-0.7901278814660451,-47.59950422069173
54.107/0001-61,Market 131 Logística,Logística,São Domingos do Capim,Pará,286198.72,147013.53,6,-1.6796430671311744,-47.77779865615594
30.966/0001-93,Market 287 Tecnologia,Tecnologia,Parauapebas,Pará,222865.02,95478.47,9,-6.071180030426626,-49.90260610482096
87.492/0001-31,Market 860 Saúde,Saúde,Xinguara,Pará,460863.99,344928.12,4,-7.102574719445958,-49.93908075117926
70.888/0001-82,Market 279 Alimentação,Alimentação,Brasil Novo,Pará,691214.59,304436.55,10,-3.2575057449808518,-52.52254384678506
18.595/0001-29,Market 652 Logística,Logística,Brasil Novo,Pará,612708.26,343631.61,6,-3.2626920172215033,-52.513288487289344
24.429/0001-70,Market 523 Saúde,Saúde,Garrafão do Norte,Pará,167708.51,133813.83,2,-2.2188683410442525,-47.051207220060434
36.979/0001-92,Market 674 Tecnologia,Tecnologia,Afuá,Pará,534988.56,286679.74,12,-0.15600644200898647,-50.382485461543375
51.380/0001-23,Market 617 Saúde,Saúde,Belterra,Pará,360257.44,231767.76,4,-3.0471852774719648,-54.946794061063336
97.233/0001-97,Market 387 Logística,Logística,Senador José Porfírio,Pará,360062.58,272999.7,3,-2.580362625007498,-51.94519441616721
29.785/0001-59,Market 157 Alimentação,Alimentação,São João do Araguaia,Pará,95915.17,71145.95,2,-5.364223984070943,-48.79031541111083
58.245/0001-50,Market 806 Alimentação,Alimentação,Bagre,Pará,712878.62,427790.84,4,-1.9070531817596164,-50.15948708791095
75.521/0001-58,Market 739 Alimentação,Alimentação,Curuá,Pará,283886.11,268700.42,1,-1.9111336527459732,-54.11819936323145
57.810/0001-14,Market 642 Serviços (MEI),Serviços (MEI),Primavera,Pará,29980.5,23187.24,4,-0.9375645462545087,-47.104330727952416
79.448/0001-22,Market 518 Alimentação,Alimentação,Senador José Porfírio,Pará,39790.17,24055.77,6,-2.5895478748943943,-51.94762293141188
16.557/0001-86,Market 348 Logística,Logística,São Domingos do Araguaia,Pará,471228.32,276163.81,4,-5.5322108489862885,-48.73506874325353
70.263/0001-43,Market 110 Vestuário,Vestuário,Novo Repartimento,Pará,277050.59,205525.65,2,-4.252382540912934,-49.94292175689591
61.418/0001-13,Market 303 Serviços (MEI),Serviços (MEI),Muaná,Pará,3967.18,2378.84,9,-1.526544713259071,-49.213709301920446
49.414/0001-77,Market 954 Alimentação,Alimentação,Santa Bárbara do Pará,Pará,202726.25,140509.52,5,-1.2281782013865026,-48.29559267099957
31.827/0001-56,Market 104 Saúde,Saúde,Santarém,Pará,540941.3,187974.51,12,-2.4498259908443454,-54.71261783070883
97.501/0001-14,Market 166 Tecnologia,Tecnologia,Santa Maria do Pará,Pará,242224.81,165606.33,6,-1.3594852884793778,-47.56916847709831
57.872/0001-63,Market 498 Logística,Logística,Santa Maria das Barreiras,Pará,437383.13,195998.51,14,-8.864324969462112,-49.70623767483617
21.437/0001-30,Market 391 Serviços (MEI),Serviços (MEI),Alenquer,Pará,50152.33,23460.53,7,-1.9470330712094766,-54.74019611576346
34.188/0001-22,Market 127 Alimentação,Alimentação,Vigia,Pará,128687.22,48846.93,14,-0.865509767343921,-48.14672575096483
69.938/0001-67,Market 818 Serviços (MEI),Serviços (MEI),Chaves,Pará,31021.92,19937.03,8,0.15333660646985792,-49.910253449816096
96.209/0001-83,Market 131 Alimentação,Alimentação,Xinguara,Pará,822046.24,319803.94,11,-7.100701007917829,-49.93666492387804
77.493/0001-89,Market 953 Serviços (MEI),Serviços (MEI),Mojuí dos Campos,Pará,25009.72,14551.44,8,-2.6766495439133045,-54.639192946439614
89.251/0001-62,Market 261 Saúde,Saúde,Altamira,Pará,68450.33,46310.25,8,-3.1985176489182674,-52.20166873006053
84.457/0001-15,Market 342 Saúde,Saúde,Santa Maria do Pará,Pará,640712.16,333365.99,6,-1.357599984939061,-47.57306641331116
91.833/0001-43,Market 479 Saúde,Saúde,São Sebastião da Boa Vista,Pará,744005.72,386667.81,9,-1.7101758210578946,-49.539587454413976
37.607/0001-25,Market 565 Alimentação,Alimentação,Santo Antônio do Tauá,Pará,248972.27,143524.23,14,-1.1491999522540544,-48.1300025303201
22.460/0001-68,Market 723 Alimentação,Alimentação,Cachoeira do Piriá,Pará,383113.41,291750.12,2,-1.7549810584614849,-46.5368081165278
30.838/0001-95,Market 457 Tecnologia,Tecnologia,Cachoeira do Arari,Pará,181261.82,167637.27,1,-1.0091091869804827,-48.96099673299755
29.814/0001-55,Market 659 Serviços (MEI),Serviços (MEI),Medicilândia,Pará,21737.03,11595.82,7,-3.442243546206569,-52.87850944054924
87.286/0001-41,Market 202 Tecnologia,Tecnologia,Monte Alegre,Pará,447769.45,257559.12,14,-2.0009603981867956,-54.06683595979693
45.499/0001-15,Market 749 Alimentação,Alimentação,Nova Ipixuna,Pará,364702.8,151537.01,10,-4.911373939331788,-49.31329981316219
13.148/0001-57,Market 252 Tecnologia,Tecnologia,Nova Esperança do Piriá,Pará,597154.26,238784.39,10,-2.2583743208132487,-46.9686629286504
24.465/0001-85,Market 637 Tecnologia,Tecnologia,Marabá,Pará,189263.43,72485.36,13,-5.3660576796895105,-49.11704462867531
23.918/0001-24,Market 538 Logística,Logística,Bom Jesus do Tocantins,Pará,497059.87,304664.16,4,-5.010132900003559,-48.60652624229235
32.339/0001-34,Market 968 Tecnologia,Tecnologia,Cachoeira do Piriá,Pará,582432.42,283391.86,9,-1.7509753501149536,-46.53376463244378
47.637/0001-96,Market 796 Alimentação,Alimentação,Mojuí dos Campos,Pará,66786.18,49357.13,2,-2.6743054239200945,-54.649029512098416
53.785/0001-32,Market 843 Serviços (MEI),Serviços (MEI),Piçarra,Pará,63144.21,21083.23,14,-6.445312420883518,-48.86376308251059
35.914/0001-14,Market 705 Serviços (MEI),Serviços (MEI),Floresta do Araguaia,Pará,28079.1,17029.71,8,-7.774961100426422,-49.391958485574456
55.381/0001-68,Market 954 Logística,Logística,Bagre,Pará,656898.03,266345.78,13,-1.9060152517122966,-50.16643950826511
39.585/0001-84,Market 978 Serviços (MEI),Serviços (MEI),Inhangapi,Pará,18584.26,10816.07,4,-1.4315388130035231,-47.9105696994415
60.550/0001-17,Market 533 Tecnologia,Tecnologia,Jacundá,Pará,38409.61,34720.19,2,-4.457727893815484,-49.11096415479351
69.962/0001-62,Market 820 Logística,Logística,Ipixuna do Pará,Pará,838428.07,347258.7,12,-2.556306535624528,-47.50519065295008
15.972/0001-19,Market 137 Alimentação,Alimentação,Trairão,Pará,323065.14,185375.47,14,-4.572138527433654,-55.93779209192935
77.587/0001-69,Market 162 Saúde,Saúde,São João da Ponta,Pará,315780.81,233026.26,2,-0.847520570349578,-47.92886575761485
38.570/0001-80,Market 248 Serviços (MEI),Serviços (MEI),Igarapé-Açu,Pará,37162.78,18592.11,13,-1.1331545848904705,-47.62866307048974
88.869/0001-69,Market 668 Vestuário,Vestuário,Paragominas,Pará,347451.12,290631.12,2,-2.9943036844582718,-47.35951561851321
23.128/0001-78,Market 447 Alimentação,Alimentação,Gurupá,Pará,576424.7,392773.52,3,-1.4063881892438754,-51.642340724967475
20.740/0001-44,Market 658 Logística,Logística,Xinguara,Pará,732870.65,307409.84,14,-7.089937105283118,-49.946420245378306
18.418/0001-18,Market 800 Serviços (MEI),Serviços (MEI),São Félix do Xingu,Pará,2134.45,1749.13,3,-6.635960475668869,-51.996812869585156
66.388/0001-40,Market 493 Alimentação,Alimentação,Gurupá,Pará,624895.25,372273.69,10,-1.4059805775789442,-51.6460176358364
70.421/0001-76,Market 759 Logística,Logística,Santa Maria do Pará,Pará,336511.57,172598.04,6,-1.3548202029916805,-47.58386031472808
21.923/0001-56,Market 653 Vestuário,Vestuário,Santana do Araguaia,Pará,706996.25,339100.87,13,-9.440815812412001,-50.32439767281555
74.585/0001-71,Market 718 Saúde,Saúde,Anapu,Pará,1216638.64,380056.92,14,-3.478724417308935,-51.20166089769419
45.653/0001-70,Market 560 Tecnologia,Tecnologia,Breu Branco,Pará,27674.52,23465.9,2,-3.752706510477484,-49.56263446978377
50.167/0001-82,Market 438 Saúde,Saúde,Limoeiro do Ajuru,Pará,232254.3,212490.34,1,-1.8994455902921832,-49.38329459557051
25.974/0001-58,Market 619 Logística,Logística,São Sebastião da Boa Vista,Pará,213393.35,164349.5,5,-1.721556584697158,-49.53309571646301
22.387/0001-51,Market 797 Logística,Logística,Marabá,Pará,461661.65,294246.94,4,-5.363647696076363,-49.12003297790604
52.187/0001-34,Market 452 Vestuário,Vestuário,São Domingos do Capim,Pará,339136.75,273387.66,2,-1.6679902557444493,-47.77371678483071
49.917/0001-28,Market 766 Logística,Logística,Vigia,Pará,664512.63,397206.86,6,-0.8615614039754681,-48.146097647122815
71.602/0001-87,Market 892 Saúde,Saúde,Rurópolis,Pará,722806.91,329094.18,11,-4.094412572793706,-54.90160807150912
21.852/0001-12,Market 625 Serviços (MEI),Serviços (MEI),Prainha,Pará,15318.48,14566.58,1,-1.8122995782976814,-53.48032395172884
12.989/0001-50,Market 308 Saúde,Saúde,São Sebastião da Boa Vista,Pará,332115.14,261029.45,4,-1.722395085323444,-49.54548930725462
58.915/0001-58,Market 930 Logística,Logística,Anajás,Pará,25900.35,23773.81,1,-0.9858653138537169,-49.943971830790026
23.454/0001-38,Market 342 Tecnologia,Tecnologia,Abaetetuba,Pará,285999.89,114007.91,11,-1.7285330494037856,-48.88659216473986
19.679/0001-91,Market 356 Tecnologia,Tecnologia,Tucuruí,Pará,666706.38,449105.83,8,-3.7607530451658575,-49.67866420561501
77.106/0001-82,Market 217 Vestuário,Vestuário,Floresta do Araguaia,Pará,370757.21,179904.26,7,-7.782496851915468,-49.40446543081075
82.325/0001-22,Market 743 Saúde,Saúde,Baião,Pará,925683.42,423821.62,13,-2.79670758389454,-49.67759528691886
45.536/0001-24,Market 238 Alimentação,Alimentação,Vitória do Xingu,Pará,704154.09,409449.97,4,-2.8740375289429876,-52.0021806948544
32.705/0001-41,Market 493 Saúde,Saúde,Placas,Pará,650789.95,301839.19,7,-3.8616248123403762,-54.220021732255276
25.996/0001-92,Market 839 Serviços (MEI),Serviços (MEI),Belterra,Pará,9431.58,6424.96,3,-3.0492193055139936,-54.94177189528422
93.849/0001-40,Market 233 Serviços (MEI),Serviços (MEI),Bagre,Pará,23704.9,15191.94,5,-1.9085374498483059,-50.16018263175028
31.566/0001-63,Market 553 Serviços (MEI),Serviços (MEI),Aurora do Pará,Pará,25906.05,16515.6,4,-2.13351507807602,-47.548766926457226
19.649/0001-52,Market 683 Tecnologia,Tecnologia,Viseu,Pará,171187.9,73064.19,12,-1.2035277369968362,-46.146180512560576
60.877/0001-68,Market 196 Logística,Logística,Itupiranga,Pará,456159.6,169518.63,10,-5.128348124803169,-49.330605906999004
93.646/0001-33,Market 767 Tecnologia,Tecnologia,Baião,Pará,560731.62,385055.49,7,-2.7862841757059496,-49.68032543511319
26.877/0001-20,Market 827 Saúde,Saúde,Terra Alta,Pará,289266.79,164734.07,8,-1.0318273655069494,-47.91728902862884
86.319/0001-88,Market 392 Serviços (MEI),Serviços (MEI),Tucumã,Pará,18767.07,8321.74,10,-6.755771776924477,-50.048913742201826
72.353/0001-50,Market 506 Alimentação,Alimentação,Nova Timboteua,Pará,168917.95,95643.3,9,-1.2103357898256133,-47.38949052339576
84.251/0001-91,Market 528 Alimentação,Alimentação,Igarapé-Açu,Pará,191169.1,156375.77,4,-1.124975456017022,-47.62290771570809
31.702/0001-31,Market 803 Saúde,Saúde,São Caetano de Odivelas,Pará,482781.92,442076.34,1,-0.7511275664678503,-48.01477886500135
59.278/0001-31,Market 683 Serviços (MEI),Serviços (MEI),Belterra,Pará,18094.7,11476.94,4,-3.0506494674169486,-54.951558528201694
25.883/0001-50,Market 200 Logística,Logística,São Miguel do Guamá,Pará,303760.54,117732.23,11,-1.622997318413755,-47.47777254782361
34.111/0001-32,Market 883 Alimentação,Alimentação,Bannach,Pará,726187.76,409746.02,6,-7.344049955473034,-50.512232320509845
70.372/0001-17,Market 822 Serviços (MEI),Serviços (MEI),Tucuruí,Pará,77037.06,24801.67,13,-3.7623571170566494,-49.66570516746733
65.260/0001-24,Market 234 Alimentação,Alimentação,Palestina do Pará,Pará,772954.1,379839.09,7,-5.734915565757843,-48.31201242732868
76.965/0001-45,Market 167 Saúde,Saúde,Magalhães Barata,Pará,130706.73,78200.24,4,-0.7942031992252464,-47.596799582094846
42.975/0001-25,Market 243 Saúde,Saúde,Curralinho,Pará,420001.87,356397.53,2,-1.8117014759325194,-49.78858516003068
93.917/0001-51,Market 823 Vestuário,Vestuário,Marapanim,Pará,649362.47,323282.38,8,-0.7202500830624685,-47.63355106445154
81.335/0001-65,Market 344 Vestuário,Vestuário,Marapanim,Pará,155072.64,142309.33,1,-0.7234746461880692,-47.632502919763525
63.788/0001-80,Market 725 Serviços (MEI),Serviços (MEI),Redenção,Pará,8134.58,5186.78,4,-8.021996544958798,-50.03460331955795
41.911/0001-27,Market 658 Serviços (MEI),Serviços (MEI),Marapanim,Pará,16581.55,9717.72,6,-0.719722961512572,-47.625068392348524
60.530/0001-75,Market 832 Vestuário,Vestuário,Marituba,Pará,684837.06,362731.98,10,-1.3618192430320644,-48.33718825333096
18.543/0001-44,Market 579 Alimentação,Alimentação,Portel,Pará,598523.85,421559.66,4,-1.9295570463703557,-50.81864861729535
83.652/0001-61,Market 518 Logística,Logística,Rondon do Pará,Pará,163174.62,139699.74,1,-4.7727054433158,-48.06741603409303
90.932/0001-45,Market 903 Alimentação,Alimentação,Brejo Grande do Araguaia,Pará,655386.71,394593.49,4,-5.6989276696195805,-48.51985315095099
53.972/0001-33,Market 640 Vestuário,Vestuário,Belém,Pará,467880.97,432605.85,1,-1.4561518544903007,-48.507136621634054
39.263/0001-50,Market 921 Serviços (MEI),Serviços (MEI),Sapucaia,Pará,25525.11,22154.24,1,-6.948061274724221,-49.68173773246967
90.804/0001-59,Market 719 Logística,Logística,Cachoeira do Arari,Pará,410365.84,253928.65,7,-1.0089536733106488,-48.958441028474034
64.861/0001-56,Market 768 Logística,Logística,Igarapé-Açu,Pará,881223.54,376198.41,13,-1.1277396798966441,-47.62326774501706
84.754/0001-74,Market 658 Logística,Logística,Ananindeua,Pará,122280.94,73525.11,7,-1.368105481392884,-48.36553872261794
67.704/0001-97,Market 238 Vestuário,Vestuário,Salinópolis,Pará,726796.46,357383.17,12,-0.6059223148064414,-47.35011953448383
37.966/0001-26,Market 575 Vestuário,Vestuário,Terra Santa,Pará,509767.9,209032.98,11,-2.1091050453569404,-56.49165418623691
18.343/0001-80,Market 639 Logística,Logística,Placas,Pará,636108.34,350469.69,8,-3.866388987085674,-54.2184177571888
82.778/0001-11,Market 762 Logística,Logística,Colares,Pará,282643.41,233762.97,3,-0.931036998566544,-48.290037186463806
25.815/0001-89,Market 526 Vestuário,Vestuário,Eldorado do Carajás,Pará,288972.25,243218.83,3,-6.104210336228403,-49.359276345648354
67.967/0001-81,Market 799 Logística,Logística,Curralinho,Pará,415604.7,250997.63,6,-1.8122860056042966,-49.796281677928526
55.651/0001-61,Market 850 Tecnologia,Tecnologia,Cumaru do Norte,Pará,706895.2,310595.79,12,-7.833575867096873,-50.78152722954586
48.215/0001-79,Market 110 Serviços (MEI),Serviços (MEI),Parauapebas,Pará,31002.01,18872.85,6,-6.073458505669251,-49.899613670855636
44.378/0001-25,Market 967 Vestuário,Vestuário,Barcarena,Pará,273417.29,200416.4,4,-1.5077369687991766,-48.629520984279495
21.660/0001-82,Market 190 Logística,Logística,Anajás,Pará,232628.33,129690.67,6,-0.9939278326101975,-49.94711058381054
34.806/0001-87,Market 115 Vestuário,Vestuário,Oriximiná,Pará,650000.88,320875.41,10,-1.7589740205104083,-55.861881972232894
18.505/0001-34,Market 797 Serviços (MEI),Serviços (MEI),Paragominas,Pará,18543.4,7514.47,9,-2.9945351299899765,-47.35934213393747
38.316/0001-59,Market 556 Logística,Logística,Barcarena,Pará,195934.75,155941.08,2,-1.4991021753290024,-48.630569704808075
57.103/0001-79,Market 945 Tecnologia,Tecnologia,Jacundá,Pará,1023069.73,330401.05,14,-4.454572461866222,-49.10855287181269
19.664/0001-89,Market 432 Tecnologia,Tecnologia,Faro,Pará,193499.91,60935.28,13,-2.1656555887458535,-56.747748614731655
50.406/0001-84,Market 519 Vestuário,Vestuário,Salinópolis,Pará,251566.03,166063.37,6,-0.6078643255428622,-47.36214712414768
27.520/0001-49,Market 943 Tecnologia,Tecnologia,Acará,Pará,146555.0,114041.05,2,-1.9590119839999558,-48.19815267386555
48.687/0001-92,Market 724 Alimentação,Alimentação,Marapanim,Pará,525337.43,414296.22,2,-0.7169305710637767,-47.63758848160558
63.513/0001-86,Market 892 Alimentação,Alimentação,Salinópolis,Pará,84287.03,33113.03,10,-0.6182125633618152,-47.35312446388153
63.287/0001-74,Market 380 Alimentação,Alimentação,Trairão,Pará,124537.04,107735.54,2,-4.577421745665276,-55.94133232816455
57.614/0001-85,Market 940 Saúde,Saúde,Canaã dos Carajás,Pará,104186.54,54182.61,10,-6.4944998496534865,-49.87974552123247
88.849/0001-50,Market 164 Logística,Logística,Tailândia,Pará,357015.19,245462.63,7,-2.9450332867818427,-48.95583621591776
65.940/0001-74,Market 471 Serviços (MEI),Serviços (MEI),Cametá,Pará,14873.82,8393.41,10,-2.245783058563481,-49.500326902043284
66.682/0001-97,Market 293 Vestuário,Vestuário,Nova Ipixuna,Pará,1162492.59,331606.11,14,-4.907261078394722,-49.30530469098711
78.143/0001-22,Market 701 Tecnologia,Tecnologia,Rio Maria,Pará,253392.05,188176.72,3,-7.318301115519969,-50.02566011421888
78.585/0001-71,Market 246 Alimentação,Alimentação,Capanema,Pará,252931.0,209704.09,3,-1.1914721924395566,-47.17457418600634
25.651/0001-29,Market 725 Logística,Logística,Tucumã,Pará,379293.02,296648.27,2,-6.7495367155496835,-50.04693415004079
34.129/0001-89,Market 670 Alimentação,Alimentação,Senador José Porfírio,Pará,390690.4,271311.82,6,-2.586070842547614,-51.95248121966419
71.147/0001-41,Market 487 Tecnologia,Tecnologia,Água Azul do Norte,Pará,989732.86,444657.46,8,-6.78049562459177,-50.48199592339596
39.476/0001-30,Market 515 Vestuário,Vestuário,Moju,Pará,658717.8,298431.9,7,-1.8836187893957552,-48.77194626401113
59.315/0001-43,Market 475 Vestuário,Vestuário,Altamira,Pará,126712.35,80435.8,4,-3.1962453209630213,-52.209794038495836
32.102/0001-98,Market 373 Vestuário,Vestuário,Soure,Pará,32897.97,28125.42,2,-0.7118254425524961,-48.52485804508501
80.639/0001-37,Market 351 Alimentação,Alimentação,Oeiras do Pará,Pará,129140.11,109064.74,2,-2.001608879856002,-49.85883887529885
42.842/0001-88,Market 536 Vestuário,Vestuário,Oriximiná,Pará,52225.27,28267.78,5,-1.7691115387146494,-55.86024062053933
52.277/0001-68,Market 224 Alimentação,Alimentação,Parauapebas,Pará,353257.74,209501.45,10,-6.066636519240511,-49.89946654949149
43.226/0001-44,Market 616 Tecnologia,Tecnologia,Tomé-Açu,Pará,890537.48,429738.09,8,-2.4150429572114627,-48.15235031277993
60.761/0001-89,Market 345 Logística,Logística,Curionópolis,Pará,129178.75,83149.44,7,-6.099362293113881,-49.59029579356695
61.542/0001-90,Market 595 Alimentação,Alimentação,Chaves,Pará,716469.13,404723.35,8,0.16030145973684096,-49.91426884151413
89.257/0001-36,Market 657 Alimentação,Alimentação,Cametá,Pará,395724.1,361215.34,1,-2.2499199438865243,-49.48892204661322
40.654/0001-28,Market 218 Serviços (MEI),Serviços (MEI),Chaves,Pará,35982.13,20067.0,13,0.16133900401337187,-49.906906346401975
56.955/0001-82,Market 710 Tecnologia,Tecnologia,Rurópolis,Pará,403683.04,228926.22,13,-4.094894871287572,-54.90519620231175
88.611/0001-84,Market 835 Serviços (MEI),Serviços (MEI),Belterra,Pará,30238.44,8991.48,14,-3.0559631677358143,-54.94609293307869
77.619/0001-40,Market 197 Serviços (MEI),Serviços (MEI),Igarapé-Açu,Pará,6296.67,3132.63,7,-1.1209259898338335,-47.62795509066362
10.450/0001-22,Market 741 Logística,Logística,Prainha,Pará,444729.47,396258.44,1,-1.814198452338216,-53.47602936776902
62.743/0001-11,Market 315 Serviços (MEI),Serviços (MEI),Irituia,Pará,11111.32,7137.51,5,-1.765468409964605,-47.4433665226305
98.588/0001-67,Market 217 Tecnologia,Tecnologia,Santarém,Pará,559023.03,279120.17,9,-2.447546518135718,-54.715835392426506
47.762/0001-50,Market 552 Logística,Logística,Medicilândia,Pará,421383.04,231237.17,8,-3.44787581899687,-52.89066530290633
34.835/0001-20,Market 909 Logística,Logística,Capitão Poço,Pará,296759.28,251187.11,3,-1.7482055867610862,-47.06123810449876
16.489/0001-87,Market 451 Tecnologia,Tecnologia,Juruti,Pará,518624.65,270810.63,13,-2.1475491343296,-56.08923923833832
69.564/0001-62,Market 428 Tecnologia,Tecnologia,Salvaterra,Pará,391406.98,266913.0,3,-0.759228697175357,-48.52141644909789
69.463/0001-46,Market 116 Logística,Logística,Belterra,Pará,743110.62,432461.93,6,-3.0463871233423805,-54.94395220218274
62.583/0001-61,Market 530 Saúde,Saúde,Tomé-Açu,Pará,499472.75,355973.33,5,-2.4180585558884826,-48.152118362746144
12.776/0001-49,Market 290 Serviços (MEI),Serviços (MEI),Canaã dos Carajás,Pará,9809.02,4730.26,10,-6.492033910514923,-49.87297843680982
44.241/0001-55,Market 205 Serviços (MEI),Serviços (MEI),Mocajuba,Pará,29102.84,14673.28,14,-2.5841478613385953,-49.506408836790044
68.363/0001-23,Market 244 Serviços (MEI),Serviços (MEI),Faro,Pará,21453.57,12711.27,4,-2.168737181612348,-56.73745143753278
94.885/0001-24,Market 428 Vestuário,Vestuário,Barcarena,Pará,302711.16,173721.93,10,-1.5053220825116644,-48.62596504563303
69.285/0001-32,Market 691 Saúde,Saúde,Augusto Corrêa,Pará,193275.97,148348.76,2,-1.019909376359122,-46.63678213159003
20.711/0001-84,Market 506 Saúde,Saúde,Melgaço,Pará,607611.84,352019.17,9,-1.6601347667921569,-50.711899410927565
83.242/0001-76,Market 211 Logística,Logística,Anapu,Pará,280439.56,206127.18,6,-3.4713888907022135,-51.1963031580612
71.603/0001-85,Market 839 Tecnologia,Tecnologia,Irituia,Pará,409909.56,199901.22,9,-1.773807719396584,-47.43848369387593
74.899/0001-85,Market 444 Vestuário,Vestuário,Peixe-Boi,Pará,697723.45,358699.99,6,-1.1899007771373948,-47.31696142315314
15.128/0001-51,Market 823 Saúde,Saúde,Almeirim,Pará,116068.39,79354.4,5,-1.5165516201569536,-52.58112897134912
32.546/0001-47,Market 191 Tecnologia,Tecnologia,Faro,Pará,253597.26,187156.68,2,-2.17686952541678,-56.74776781658802
31.142/0001-40,Market 228 Tecnologia,Tecnologia,Afuá,Pará,274222.7,189406.55,5,-0.15208591474174143,-50.38980526831609
77.338/0001-20,Market 696 Tecnologia,Tecnologia,Curralinho,Pará,113662.34,96656.59,3,-1.8221874301969974,-49.800563670636706
28.121/0001-35,Market 948 Tecnologia,Tecnologia,Redenção,Pará,172607.67,139875.47,2,-8.033585773956576,-50.030984971976444
93.690/0001-53,Market 271 Alimentação,Alimentação,Tracuateua,Pará,40103.63,35123.87,2,-1.0817821773819152,-46.89994560128697
25.418/0001-19,Market 489 Serviços (MEI),Serviços (MEI),São Sebastião da Boa Vista,Pará,60263.27,21768.13,10,-1.7237028386810649,-49.545272860856706
26.385/0001-55,Market 441 Logística,Logística,Cachoeira do Arari,Pará,477459.94,378706.98,5,-1.004276496504778,-48.97080087030069
48.412/0001-88,Market 462 Tecnologia,Tecnologia,São Domingos do Araguaia,Pará,881466.86,416823.13,11,-5.54025443408136,-48.725418694041046
78.187/0001-44,Market 459 Saúde,Saúde,Pacajá,Pará,606904.58,445627.57,3,-3.8425514809946257,-50.63842901570907
13.672/0001-17,Market 703 Serviços (MEI),Serviços (MEI),Curuá,Pará,12452.81,7904.11,8,-1.9054825439796428,-54.10997426691519
24.778/0001-82,Market 322 Logística,Logística,Nova Ipixuna,Pará,289641.4,208478.28,7,-4.913680517242892,-49.3100981664432
34.678/0001-42,Market 805 Tecnologia,Tecnologia,Primavera,Pará,659372.74,247276.01,12,-0.9485869616199382,-47.095181176839226
54.381/0001-34,Market 686 Tecnologia,Tecnologia,Marituba,Pará,737186.66,310676.35,12,-1.3532571384067626,-48.34770541784909
87.605/0001-72,Market 478 Vestuário,Vestuário,Rondon do Pará,Pará,429309.44,392516.57,1,-4.779013310619105,-48.070000490674424
30.199/0001-30,Market 243 Logística,Logística,Prainha,Pará,173485.09,80628.26,9,-1.8092777375170317,-53.48157587411211
18.766/0001-72,Market 834 Alimentação,Alimentação,Nova Ipixuna,Pará,332027.09,189341.25,8,-4.909970333349072,-49.31089455132177
10.735/0001-39,Market 733 Saúde,Saúde,Oriximiná,Pará,201694.86,103061.76,10,-1.767517924861477,-55.86913903405027
93.103/0001-29,Market 737 Serviços (MEI),Serviços (MEI),São João da Ponta,Pará,29469.2,19946.91,9,-0.8549840829414428,-47.9169647914897
15.705/0001-85,Market 678 Serviços (MEI),Serviços (MEI),São João do Araguaia,Pará,13641.05,8678.42,5,-5.3628815436180926,-48.78392574523599
41.776/0001-49,Market 196 Vestuário,Vestuário,Maracanã,Pará,121312.63,50944.03,12,-0.7601672581385468,-47.458371088557605
64.562/0001-15,Market 624 Logística,Logística,Alenquer,Pará,263839.34,210451.71,5,-1.9499811240296825,-54.741117643406106
97.501/0001-22,Market 474 Saúde,Saúde,Ponta de Pedras,Pará,470462.69,210888.94,8,-1.3879150037474781,-48.841145814815484
96.446/0001-76,Market 613 Tecnologia,Tecnologia,Conceição do Araguaia,Pará,153253.27,82286.6,10,-8.250690570490185,-49.2698224684745
24.580/0001-81,Market 345 Alimentação,Alimentação,Oriximiná,Pará,886258.49,340409.85,10,-1.7635283152693444,-55.8603277583076
12.708/0001-96,Market 236 Logística,Logística,Salvaterra,Pará,66759.69,40070.2,4,-0.7596434181311099,-48.52140598738176
72.384/0001-16,Market 774 Vestuário,Vestuário,Bagre,Pará,573883.51,209522.56,13,-1.9059638572000452,-50.16204774729237
63.785/0001-22,Market 395 Alimentação,Alimentação,Belterra,Pará,545850.72,287015.09,6,-3.054762757356951,-54.94834524179243
19.910/0001-30,Market 643 Logística,Logística,Cametá,Pará,199370.73,78476.03,11,-2.2464034270247892,-49.500574667609214
52.822/0001-50,Market 683 Logística,Logística,Santo Antônio do Tauá,Pará,498490.89,221343.03,11,-1.159034966757784,-48.12304584303291
45.229/0001-58,Market 788 Tecnologia,Tecnologia,Bragança,Pará,660410.95,294839.25,9,-1.0499711832441712,-46.7589107127567
10.965/0001-49,Market 575 Saúde,Saúde,Inhangapi,Pará,573609.36,305586.03,10,-1.4323454525398245,-47.91372252393026
18.537/0001-72,Market 358 Tecnologia,Tecnologia,Anapu,Pará,268151.44,102899.53,14,-3.478314080134658,-51.20469619433882
28.956/0001-91,Market 191 Saúde,Saúde,Santo Antônio do Tauá,Pará,232081.86,184405.62,4,-1.1452835895978486,-48.13345575091751
17.798/0001-61,Market 378 Logística,Logística,Bragança,Pará,377542.3,251906.62,9,-1.0530632707069243,-46.76171965489405
36.268/0001-62,Market 233 Alimentação,Alimentação,Augusto Corrêa,Pará,523185.26,428769.76,2,-1.0270847701114139,-46.630972547707266
14.357/0001-82,Market 591 Tecnologia,Tecnologia,São João da Ponta,Pará,231766.93,103103.71,12,-0.846947640129967,-47.91637200462844
17.137/0001-25,Market 116 Logística,Logística,Ponta de Pedras,Pará,305098.0,164228.85,10,-1.3893751906607392,-48.84136590192937
11.268/0001-52,Market 891 Vestuário,Vestuário,Conceição do Araguaia,Pará,417699.85,305194.56,3,-8.250754865128084,-49.26791337102182
36.449/0001-22,Market 686 Serviços (MEI),Serviços (MEI),Mãe do Rio,Pará,44301.52,14490.6,12,-2.0584747240133265,-47.5552689589073
26.610/0001-53,Market 673 Tecnologia,Tecnologia,Itaituba,Pará,259735.1,131733.44,11,-4.281838719692111,-55.97504838619733
86.882/0001-51,Market 344 Logística,Logística,Maracanã,Pará,100374.37,86422.31,2,-0.7621652264304403,-47.44774413847614
19.647/0001-65,Market 632 Alimentação,Alimentação,Curralinho,Pará,497149.39,346995.79,6,-1.8207205316500223,-49.78886843999061
88.982/0001-12,Market 619 Vestuário,Vestuário,Rurópolis,Pará,400894.61,278202.4,4,-4.099469916165738,-54.91566736967587
48.273/0001-45,Market 106 Saúde,Saúde,Marituba,Pará,361078.14,297060.53,2,-1.3486854377305117,-48.343877469805385
18.950/0001-12,Market 858 Alimentação,Alimentação,Juruti,Pará,714807.91,228156.56,13,-2.1520943998918423,-56.09302348409377
46.790/0001-42,Market 306 Alimentação,Alimentação,Tailândia,Pará,458679.06,349671.94,3,-2.948768301605782,-48.94520985159292
83.409/0001-90,Market 405 Vestuário,Vestuário,São Domingos do Araguaia,Pará,562511.94,274419.66,13,-5.540179843502303,-48.72772456088946
93.154/0001-95,Market 353 Vestuário,Vestuário,Rurópolis,Pará,511421.41,254497.8,7,-4.094238016095911,-54.90334294352022
70.311/0001-78,Market 499 Saúde,Saúde,Alenquer,Pará,462839.15,363706.47,2,-1.953910984995057,-54.73918747392321
63.538/0001-22,Market 859 Tecnologia,Tecnologia,Bom Jesus do Tocantins,Pará,424205.55,390647.39,1,-5.023959258754305,-48.61190883664199
54.950/0001-44,Market 682 Logística,Logística,Marapanim,Pará,571167.81,370877.91,10,-0.7102413408902917,-47.6311089682225
62.795/0001-52,Market 725 Saúde,Saúde,Santana do Araguaia,Pará,279773.6,105500.46,11,-9.442991694650715,-50.32856557269717
65.569/0001-82,Market 566 Serviços (MEI),Serviços (MEI),Oeiras do Pará,Pará,29343.29,16751.93,6,-1.9991622870762795,-49.86126892921538
27.593/0001-45,Market 309 Alimentação,Alimentação,Castanhal,Pará,210811.4,136543.79,9,-1.3039393277941476,-47.92564040760886
96.495/0001-87,Market 738 Tecnologia,Tecnologia,Capanema,Pará,92873.85,82039.54,2,-1.198891801105023,-47.179156322317155
13.548/0001-24,Market 154 Serviços (MEI),Serviços (MEI),Vitória do Xingu,Pará,29971.33,20057.32,3,-2.8860861925146764,-52.01205914968595
73.726/0001-69,Market 605 Vestuário,Vestuário,Mocajuba,Pará,419891.61,211828.28,9,-2.5918619145810102,-49.514690505995965
86.370/0001-37,Market 786 Logística,Logística,Nova Timboteua,Pará,863093.15,447633.23,14,-1.2022566046369687,-47.384046109893596
77.169/0001-82,Market 921 Saúde,Saúde,Salvaterra,Pará,573040.52,387633.14,3,-0.7632161172865196,-48.508957906703436
11.480/0001-86,Market 583 Saúde,Saúde,Rondon do Pará,Pará,673997.14,396884.74,8,-4.7727387183226,-48.07122929165912
14.730/0001-53,Market 630 Alimentação,Alimentação,Belém,Pará,53285.45,48294.48,1,-1.4600958522325604,-48.500500661484345
15.275/0001-69,Market 812 Alimentação,Alimentação,Santa Maria das Barreiras,Pará,484881.87,397332.71,3,-8.864691265176015,-49.717181186170414
57.110/0001-63,Market 345 Vestuário,Vestuário,Bragança,Pará,230849.37,126987.94,8,-1.0524882599303005,-46.77291084145738
63.276/0001-14,Market 393 Vestuário,Vestuário,Conceição do Araguaia,Pará,548813.06,291884.71,7,-8.250736994860912,-49.26039298654012
68.236/0001-49,Market 252 Tecnologia,Tecnologia,Santana do Araguaia,Pará,107607.47,56773.41,13,-9.441813720593252,-50.332145548714756
78.873/0001-55,Market 624 Alimentação,Alimentação,Nova Ipixuna,Pará,50273.2,43236.71,2,-4.915735583993889,-49.30675922575924
20.600/0001-85,Market 360 Serviços (MEI),Serviços (MEI),Curralinho,Pará,32035.49,23895.6,6,-1.8163757125629754,-49.79705081644045
80.110/0001-67,Market 756 Serviços (MEI),Serviços (MEI),Xinguara,Pará,4344.83,2833.18,9,-7.09554570528171,-49.950162501683586
60.621/0001-47,Market 327 Tecnologia,Tecnologia,Abel Figueiredo,Pará,192857.6,82049.46,11,-4.954328500383935,-48.40344359596328
86.133/0001-58,Market 986 Vestuário,Vestuário,Santa Luzia do Pará,Pará,1063069.35,381771.28,10,-1.517310209727192,-46.91208788096871
97.463/0001-72,Market 388 Saúde,Saúde,Ipixuna do Pará,Pará,920658.9,347035.0,12,-2.5615662755938398,-47.4996844925524
66.451/0001-93,Market 682 Serviços (MEI),Serviços (MEI),Ipixuna do Pará,Pará,11619.33,5927.29,6,-2.5661531969201006,-47.501553632370175
16.173/0001-52,Market 973 Logística,Logística,Tucumã,Pará,341416.61,308984.23,2,-6.75260155903927,-50.05476057187808
66.320/0001-97,Market 486 Alimentação,Alimentação,Muaná,Pará,414814.26,219662.49,8,-1.5202714303948157,-49.217752616727566
62.715/0001-50,Market 896 Saúde,Saúde,Curralinho,Pará,492291.29,375910.94,4,-1.8176509352330226,-49.79064185467062
30.158/0001-56,Market 128 Vestuário,Vestuário,Rurópolis,Pará,71390.26,60888.07,2,-4.091633241624975,-54.90530113630952
36.784/0001-89,Market 874 Tecnologia,Tecnologia,Novo Repartimento,Pará,322493.46,209652.88,10,-4.247190898737735,-49.93433815268235
33.203/0001-98,Market 278 Logística,Logística,Cachoeira do Arari,Pará,801456.84,399361.99,8,-1.0173450165945759,-48.962950930910935
57.967/0001-18,Market 489 Serviços (MEI),Serviços (MEI),Breves,Pará,11484.28,4076.02,11,-1.6731139753912794,-50.48705759310449
41.931/0001-89,Market 903 Serviços (MEI),Serviços (MEI),Bujaru,Pará,21467.33,15562.32,5,-1.5073836305819759,-48.0429103875272
49.441/0001-65,Market 684 Saúde,Saúde,Marapanim,Pará,169675.51,102659.84,9,-0.7221868018211359,-47.631906186703155
31.338/0001-63,Market 600 Alimentação,Alimentação,Senador José Porfírio,Pará,64469.34,41584.58,4,-2.589253240274227,-51.9552806220591
71.931/0001-22,Market 326 Logística,Logística,Senador José Porfírio,Pará,559813.98,165645.51,14,-2.590529115981464,-51.95425058922621
60.943/0001-12,Market 794 Vestuário,Vestuário,Nova Timboteua,Pará,1461249.47,424758.04,14,-1.202195504630629,-47.38835565246143
54.820/0001-96,Market 282 Alimentação,Alimentação,Nova Esperança do Piriá,Pará,185657.51,104719.15,13,-2.260321650967743,-46.96941008798898
57.523/0001-40,Market 721 Tecnologia,Tecnologia,Senador José Porfírio,Pará,1141786.74,424059.58,11,-2.5854833343573076,-51.94371491224157
81.861/0001-64,Market 210 Logística,Logística,Tucuruí,Pará,815848.02,382796.16,13,-3.7569722483111305,-49.67365276839453
40.156/0001-96,Market 843 Serviços (MEI),Serviços (MEI),Trairão,Pará,20552.51,6802.63,13,-4.572076587969326,-55.938049364934116
33.740/0001-50,Market 576 Vestuário,Vestuário,Tomé-Açu,Pará,156525.56,110201.66,4,-2.4170040788709968,-48.157199270423575
13.461/0001-34,Market 327 Serviços (MEI),Serviços (MEI),Colares,Pará,7319.93,6696.96,1,-0.9275162778190179,-48.27877488985059
67.537/0001-62,Market 699 Logística,Logística,São Caetano de Odivelas,Pará,633793.42,367369.15,8,-0.7472316266026092,-48.009340441164994
38.495/0001-51,Market 628 Vestuário,Vestuário,Abel Figueiredo,Pará,229347.45,133875.7,9,-4.948292814749909,-48.40321147297473
54.503/0001-65,Market 328 Tecnologia,Tecnologia,Pau D'Arco,Pará,416106.08,272567.92,8,-7.524622456413304,-50.04584426758474
48.741/0001-19,Market 274 Logística,Logística,Curuá,Pará,491332.9,279639.97,9,-1.9044063695628537,-54.11631382133212
28.450/0001-36,Market 324 Alimentação,Alimentação,Canaã dos Carajás,Pará,122325.19,72313.95,4,-6.493079125353374,-49.87507343040381
77.574/0001-31,Market 598 Vestuário,Vestuário,Santa Maria das Barreiras,Pará,395431.89,213258.55,12,-8.86153903677573,-49.71421615623152
18.995/0001-91,Market 714 Serviços (MEI),Serviços (MEI),Quatipuru,Pará,18109.97,10563.88,5,-0.895789075627248,-47.008258873504026
28.348/0001-64,Market 942 Vestuário,Vestuário,Soure,Pará,513981.94,352916.24,4,-0.7202903072053132,-48.51758689932818
88.350/0001-60,Market 866 Serviços (MEI),Serviços (MEI),Quatipuru,Pará,16063.86,8817.69,10,-0.8945362387107936,-47.00023948095097
26.521/0001-91,Market 536 Alimentação,Alimentação,Nova Esperança do Piriá,Pará,822806.35,342888.64,11,-2.2674776206768175,-46.959106382831074
24.549/0001-26,Market 671 Logística,Logística,São Félix do Xingu,Pará,189382.52,99318.16,8,-6.640726397991015,-51.98770986951366
30.602/0001-27,Market 924 Vestuário,Vestuário,Floresta do Araguaia,Pará,130266.01,73139.66,9,-7.7754613356948985,-49.40143141779595
83.431/0001-67,Market 296 Alimentação,Alimentação,São Francisco do Pará,Pará,446695.73,177526.3,9,-1.1729661684488308,-47.80264584399483
42.710/0001-45,Market 248 Logística,Logística,Juruti,Pará,163655.17,113478.18,7,-2.153709840830926,-56.10351243194
65.729/0001-10,Market 341 Logística,Logística,Novo Repartimento,Pará,885353.72,421536.05,9,-4.2555285361651105,-49.94114247474248
66.917/0001-95,Market 682 Saúde,Saúde,São Francisco do Pará,Pará,557050.34,366215.88,10,-1.162192260264546,-47.79316610937077
26.290/0001-46,Market 667 Saúde,Saúde,Conceição do Araguaia,Pará,461680.24,385067.93,3,-8.262818646922023,-49.26544264271991
27.127/0001-47,Market 301 Logística,Logística,Oeiras do Pará,Pará,25292.08,20911.38,2,-2.0090731320434867,-49.85867903211155
43.351/0001-25,Market 339 Alimentação,Alimentação,Santo Antônio do Tauá,Pará,237438.47,113566.65,12,-1.1485199947267524,-48.1338237425408
31.822/0001-51,Market 907 Vestuário,Vestuário,Nova Esperança do Piriá,Pará,367685.01,306383.63,2,-2.2560299237438217,-46.96991874006187
94.361/0001-45,Market 868 Vestuário,Vestuário,Trairão,Pará,741331.92,230166.04,14,-4.5780471549837864,-55.93807247222616
88.369/0001-21,Market 744 Tecnologia,Tecnologia,Tracuateua,Pará,1187419.76,428776.62,11,-1.0805800276447928,-46.910347977610854
55.621/0001-96,Market 220 Saúde,Saúde,Mojuí dos Campos,Pará,331275.78,178846.07,5,-2.68910496253292,-54.63702677872832
96.903/0001-97,Market 421 Alimentação,Alimentação,Bom Jesus do Tocantins,Pará,1066315.58,421581.42,11,-5.02190771660768,-48.59920373887474
71.112/0001-22,Market 356 Saúde,Saúde,São Francisco do Pará,Pará,496724.91,446411.62,1,-1.1617623152607808,-47.79866928261082
34.169/0001-84,Market 800 Alimentação,Alimentação,Bannach,Pará,639032.01,383277.54,5,-7.338961061589655,-50.51866749799096
63.604/0001-64,Market 215 Serviços (MEI),Serviços (MEI),São Sebastião da Boa Vista,Pará,4793.84,3518.31,6,-1.722026026143973,-49.540469330282434
35.832/0001-77,Market 388 Saúde,Saúde,Cumaru do Norte,Pará,430645.79,156706.75,11,-7.830716646107427,-50.774888110642266
11.239/0001-91,Market 609 Serviços (MEI),Serviços (MEI),Moju,Pará,45672.32,24939.18,5,-1.8835209562956101,-48.766311357367364
85.230/0001-68,Market 950 Tecnologia,Tecnologia,Belém,Pará,401083.31,214161.25,14,-1.451268147890322,-48.50744538465794
40.821/0001-42,Market 151 Saúde,Saúde,Colares,Pará,615946.65,266765.72,13,-0.9332067371873295,-48.28251394047211
18.343/0001-11,Market 791 Vestuário,Vestuário,Santa Cruz do Arari,Pará,708213.44,421307.91,10,-0.6725951057363208,-49.171444680096975
30.697/0001-59,Market 213 Vestuário,Vestuário,Abaetetuba,Pará,742283.0,276490.42,10,-1.7191805616228726,-48.893095666050186
93.877/0001-90,Market 592 Logística,Logística,Nova Ipixuna,Pará,686291.18,342598.62,7,-4.9189725279176715,-49.3152961399032
23.977/0001-79,Market 825 Alimentação,Alimentação,São Félix do Xingu,Pará,842336.38,373281.17,7,-6.636407630741938,-51.9902166164315
54.277/0001-65,Market 607 Alimentação,Alimentação,Breves,Pará,823170.98,439783.56,6,-1.678664337577568,-50.485180627328575
49.211/0001-74,Market 141 Serviços (MEI),Serviços (MEI),Ananindeua,Pará,4408.29,3045.02,5,-1.3702868303502966,-48.37462877271406
21.725/0001-12,Market 105 Saúde,Saúde,São João da Ponta,Pará,217428.1,109724.94,8,-0.8524738871932771,-47.92413471759048
58.771/0001-35,Market 166 Tecnologia,Tecnologia,Parauapebas,Pará,242318.33,142717.4,5,-6.070615617638138,-49.895963663454424
36.552/0001-93,Market 464 Logística,Logística,Placas,Pará,153877.47,125394.23,3,-3.862805444676897,-54.2134210030655
68.839/0001-79,Market 774 Alimentação,Alimentação,Aveiro,Pará,998010.07,432703.36,11,-3.6074010713595435,-55.33050531045471
30.688/0001-17,Market 248 Tecnologia,Tecnologia,Bujaru,Pará,224525.47,151954.15,8,-1.513933385866977,-48.034935433886716
87.820/0001-39,Market 692 Tecnologia,Tecnologia,Vigia,Pará,153946.36,69332.08,14,-0.8611760653018208,-48.14302958931854
27.770/0001-60,Market 328 Logística,Logística,Santarém,Pará,402929.73,210050.13,11,-2.4398680790258807,-54.70609984570537
33.108/0001-12,Market 247 Serviços (MEI),Serviços (MEI),Rio Maria,Pará,1396.54,1035.87,4,-7.313642454973991,-50.02708928822074
83.121/0001-86,Market 834 Vestuário,Vestuário,Novo Progresso,Pará,414011.83,205224.64,8,-7.021549579451006,-55.387367724278946
96.493/0001-70,Market 127 Vestuário,Vestuário,Acará,Pará,364976.62,268694.5,4,-1.9650918530846146,-48.20501252046128
94.366/0001-55,Market 378 Vestuário,Vestuário,São Sebastião da Boa Vista,Pará,301522.96,197039.49,7,-1.7166298753206546,-49.5430937024383
29.868/0001-90,Market 526 Vestuário,Vestuário,Jacundá,Pará,280916.24,144248.79,11,-4.456146680330799,-49.1114762909168
44.530/0001-84,Market 377 Alimentação,Alimentação,Itupiranga,Pará,786502.16,434034.87,5,-5.136644972798712,-49.32616976743423
49.427/0001-75,Market 703 Vestuário,Vestuário,Tailândia,Pará,1070962.69,428104.99,12,-2.9497251786230123,-48.95831076651691
18.532/0001-61,Market 690 Logística,Logística,Brejo Grande do Araguaia,Pará,205903.86,94073.71,11,-5.704780761028544,-48.506472445019156
82.131/0001-14,Market 824 Saúde,Saúde,Jacareacanga,Pará,193902.42,84464.07,10,-6.225108546130809,-57.764251603479444
74.681/0001-90,Market 354 Tecnologia,Tecnologia,Ponta de Pedras,Pará,78108.71,53089.84,7,-1.386771679591898,-48.8334625334201
80.609/0001-23,Market 507 Logística,Logística,Itupiranga,Pará,455717.82,267949.64,12,-5.1273162365297065,-49.33206305855595
25.728/0001-75,Market 305 Tecnologia,Tecnologia,Irituia,Pará,534863.82,407274.26,2,-1.7780499789417512,-47.44471826268573
31.833/0001-24,Market 503 Tecnologia,Tecnologia,Aurora do Pará,Pará,61801.25,47943.38,2,-2.121257179360455,-47.5543347253259
90.505/0001-75,Market 195 Saúde,Saúde,Benevides,Pará,621537.7,365113.51,4,-1.357014157328985,-48.25178893452564
84.726/0001-82,Market 949 Logística,Logística,Santa Cruz do Arari,Pará,338691.26,191089.13,5,-0.6635288707091198,-49.18010358660661
32.971/0001-35,Market 869 Serviços (MEI),Serviços (MEI),Anapu,Pará,33358.37,16237.86,13,-3.4695049023553373,-51.20099472133011
19.635/0001-92,Market 910 Vestuário,Vestuário,Marabá,Pará,684568.02,282119.71,8,-5.354190533725196,-49.131553769215124
13.283/0001-79,Market 627 Alimentação,Alimentação,Oeiras do Pará,Pará,364492.95,175353.98,6,-1.9960341808701927,-49.85254994432895
93.838/0001-34,Market 367 Serviços (MEI),Serviços (MEI),Óbidos,Pará,33492.11,18313.25,14,-1.9103895679736567,-55.51119145047189
17.208/0001-39,Market 295 Vestuário,Vestuário,Tucuruí,Pará,252479.69,217636.43,1,-3.7642044359696243,-49.671055192072764
42.436/0001-98,Market 179 Vestuário,Vestuário,Magalhães Barata,Pará,681342.19,360256.01,10,-0.799193384809932,-47.59746507614159
56.896/0001-31,Market 358 Logística,Logística,Dom Eliseu,Pará,238956.34,155860.21,3,-4.277463122572052,-47.5056354652836
55.284/0001-87,Market 960 Alimentação,Alimentação,Brejo Grande do Araguaia,Pará,613453.83,179282.39,14,-5.691112277136815,-48.52121358931826
93.644/0001-61,Market 187 Serviços (MEI),Serviços (MEI),Ponta de Pedras,Pará,36687.76,22608.87,7,-1.381498454042366,-48.844079756820626
83.406/0001-24,Market 432 Logística,Logística,Juruti,Pará,546668.74,395203.08,3,-2.1516227758186806,-56.10195692852892
48.351/0001-15,Market 670 Tecnologia,Tecnologia,Cumaru do Norte,Pará,304465.31,147597.89,12,-7.826512809416205,-50.786724699364925
49.158/0001-50,Market 888 Tecnologia,Tecnologia,São Francisco do Pará,Pará,529990.18,413272.02,2,-1.1728340135998754,-47.78869366741426
59.801/0001-46,Market 956 Logística,Logística,Nova Ipixuna,Pará,697926.14,309428.84,14,-4.916334129003258,-49.30430230085684
44.570/0001-60,Market 371 Tecnologia,Tecnologia,São Domingos do Araguaia,Pará,598458.07,181501.3,14,-5.530710250442296,-48.72337485407922
10.773/0001-83,Market 274 Serviços (MEI),Serviços (MEI),Limoeiro do Ajuru,Pará,15063.49,8690.3,9,-1.90283774986441,-49.38750799929955
50.857/0001-62,Market 254 Tecnologia,Tecnologia,Limoeiro do Ajuru,Pará,402486.27,326122.72,2,-1.8895400103794449,-49.37483046826348
62.649/0001-37,Market 355 Alimentação,Alimentação,Redenção,Pará,429020.39,223276.23,7,-8.027283459566773,-50.03033589116598
34.374/0001-88,Market 768 Tecnologia,Tecnologia,Melgaço,Pará,175250.55,95535.15,11,-1.660665762952826,-50.71690460230927
50.632/0001-29,Market 508 Alimentação,Alimentação,São Sebastião da Boa Vista,Pará,827482.63,361885.01,10,-1.7140957392779281,-49.53640814811612
56.698/0001-12,Market 627 Alimentação,Alimentação,Brasil Novo,Pará,444384.4,340576.24,3,-3.263514119326759,-52.52463576110304
71.311/0001-12,Market 314 Logística,Logística,Redenção,Pará,698769.8,395851.29,8,-8.0273072687677,-50.03845466317139
73.436/0001-85,Market 474 Logística,Logística,Breu Branco,Pará,44538.91,39918.64,1,-3.760174138222213,-49.5586681788075
96.577/0001-88,Market 332 Vestuário,Vestuário,São João de Pirabas,Pará,285634.41,196070.53,5,-0.7695001439680997,-47.16832670844352
13.181/0001-89,Market 860 Alimentação,Alimentação,Garrafão do Norte,Pará,1258964.98,443739.39,14,-2.224482900525072,-47.04544963064984
45.817/0001-74,Market 486 Tecnologia,Tecnologia,Medicilândia,Pará,961427.66,448995.76,8,-3.449430114482926,-52.8811054977138
63.574/0001-64,Market 176 Vestuário,Vestuário,Pacajá,Pará,339390.24,125037.22,14,-3.8441442093221916,-50.63379284845351
87.407/0001-92,Market 918 Alimentação,Alimentação,Limoeiro do Ajuru,Pará,174683.56,121712.6,4,-1.8916281969501147,-49.38523608733622
31.118/0001-81,Market 149 Tecnologia,Tecnologia,Goianésia do Pará,Pará,446618.69,308215.42,3,-3.8505754941878165,-49.101212822984635
80.381/0001-73,Market 319 Tecnologia,Tecnologia,Xinguara,Pará,247193.8,192007.33,5,-7.0967177473533525,-49.94429355218798
43.335/0001-98,Market 856 Saúde,Saúde,Novo Repartimento,Pará,436041.84,361456.31,3,-4.245403191801951,-49.933299407613866
16.910/0001-39,Market 827 Serviços (MEI),Serviços (MEI),Rondon do Pará,Pará,3654.94,2437.05,6,-4.782292088732253,-48.06129991163025
65.192/0001-24,Market 733 Tecnologia,Tecnologia,Altamira,Pará,71972.74,63337.39,2,-3.206276903578721,-52.20528205541617
57.476/0001-10,Market 997 Vestuário,Vestuário,Inhangapi,Pará,374548.45,282336.44,3,-1.4349671584020023,-47.9162132057265
44.212/0001-67,Market 813 Saúde,Saúde,Itupiranga,Pará,911181.49,348353.31,11,-5.138298633144922,-49.32887802504636
62.863/0001-64,Market 575 Saúde,Saúde,Palestina do Pará,Pará,59931.67,26481.88,13,-5.744220120071662,-48.32328880310845
64.157/0001-91,Market 594 Alimentação,Alimentação,Benevides,Pará,1286420.88,435938.28,11,-1.3573167733847253,-48.244510541064436
89.237/0001-10,Market 698 Vestuário,Vestuário,Viseu,Pará,184145.97,95579.2,8,-1.1982911555446267,-46.13886228822541
25.152/0001-96,Market 984 Saúde,Saúde,Oriximiná,Pará,521166.86,285647.3,8,-1.7630411028262112,-55.862175040616904
95.367/0001-72,Market 828 Saúde,Saúde,Itupiranga,Pará,650961.87,294960.63,11,-5.141145993174468,-49.331585581009776
63.882/0001-10,Market 305 Tecnologia,Tecnologia,Parauapebas,Pará,242301.52,175788.07,4,-6.073036395557818,-49.90786167176057
49.361/0001-46,Market 310 Saúde,Saúde,Tucumã,Pará,79723.15,48151.84,9,-6.747841105272813,-50.05849330714893
15.414/0001-52,Market 721 Logística,Logística,Santa Izabel do Pará,Pará,1166397.45,409029.3,12,-1.3048480861263674,-48.15412609413776
67.779/0001-35,Market 426 Logística,Logística,Concórdia do Pará,Pará,624724.45,219204.75,12,-1.9988739855227515,-47.94771949184363
45.318/0001-42,Market 177 Tecnologia,Tecnologia,Brasil Novo,Pará,483041.93,211170.41,10,-3.2604864488242584,-52.51842647857452
97.950/0001-82,Market 427 Serviços (MEI),Serviços (MEI),Ourém,Pará,27709.26,11558.12,11,-1.5587607009973312,-47.10563322072595
84.252/0001-89,Market 325 Logística,Logística,Abel Figueiredo,Pará,174904.46,128387.76,5,-4.959021049449377,-48.39155506817921
85.153/0001-75,Market 750 Saúde,Saúde,Santa Bárbara do Pará,Pará,120164.86,100949.94,3,-1.219201991478096,-48.295822193061575
32.829/0001-80,Market 220 Serviços (MEI),Serviços (MEI),Soure,Pará,49427.82,19583.94,9,-0.7126237288643456,-48.521197696504444
90.171/0001-42,Market 244 Logística,Logística,Peixe-Boi,Pará,203609.51,121019.95,7,-1.1884803534964115,-47.31760192374508
92.402/0001-89,Market 481 Logística,Logística,Mojuí dos Campos,Pará,219910.82,122169.29,6,-2.678177144451503,-54.641195484099214
98.131/0001-48,Market 413 Vestuário,Vestuário,Altamira,Pará,721173.84,332589.74,8,-3.2066462705734886,-52.210768019683044
75.957/0001-86,Market 585 Alimentação,Alimentação,Paragominas,Pará,227735.16,136918.68,13,-2.9941940949118275,-47.34494168791055
36.499/0001-14,Market 111 Serviços (MEI),Serviços (MEI),Santa Maria do Pará,Pará,9768.43,4526.16,12,-1.3484292402418068,-47.568344116449154
55.343/0001-22,Market 686 Alimentação,Alimentação,Tailândia,Pará,177443.68,93576.31,5,-2.941572590739943,-48.95551572959457
78.291/0001-62,Market 970 Saúde,Saúde,Ourilândia do Norte,Pará,344749.97,185601.19,12,-6.749696524234853,-51.090154626440075
81.678/0001-31,Market 318 Tecnologia,Tecnologia,Ourilândia do Norte,Pará,76492.0,31198.39,10,-6.755631500354413,-51.08979594281765
22.736/0001-36,Market 409 Serviços (MEI),Serviços (MEI),Tailândia,Pará,6288.59,2208.71,12,-2.9449224286528737,-48.951357201555425
38.499/0001-69,Market 167 Alimentação,Alimentação,Mãe do Rio,Pará,700549.66,213674.56,14,-2.050074920879606,-47.55510111691339
27.802/0001-28,Market 671 Vestuário,Vestuário,Faro,Pará,946981.3,422912.84,7,-2.174252586193154,-56.73810337758119
25.316/0001-41,Market 987 Saúde,Saúde,Santa Luzia do Pará,Pará,686971.37,421791.55,4,-1.5134719933263594,-46.90352369287559
25.150/0001-82,Market 128 Logística,Logística,Abaetetuba,Pará,162665.12,148568.24,1,-1.7197949857562873,-48.887482485755406
33.955/0001-78,Market 363 Logística,Logística,Abaetetuba,Pará,228280.3,129635.5,5,-1.7174953527640457,-48.89198692865042
46.945/0001-31,Market 937 Logística,Logística,Santana do Araguaia,Pará,590016.02,327982.87,13,-9.437538531552931,-50.33145008601467
30.734/0001-32,Market 381 Logística,Logística,Anapu,Pará,854200.41,414562.39,6,-3.479289127538031,-51.20853859581779
91.410/0001-74,Market 981 Logística,Logística,Primavera,Pará,341081.61,147500.3,11,-0.9371859493842312,-47.099069722369464
30.274/0001-47,Market 589 Vestuário,Vestuário,Prainha,Pará,532565.12,389648.98,3,-1.8001724449922476,-53.4818377580176
62.775/0001-48,Market 532 Tecnologia,Tecnologia,Paragominas,Pará,452686.84,330421.71,6,-3.0016428312858072,-47.34445552531819
70.598/0001-14,Market 984 Vestuário,Vestuário,Mãe do Rio,Pará,66320.72,38965.94,11,-2.0557935314725415,-47.54689472288685
42.376/0001-91,Market 361 Tecnologia,Tecnologia,Vigia,Pará,411299.33,358849.75,1,-0.8559873181397485,-48.14383562536751
55.592/0001-45,Market 865 Alimentação,Alimentação,Piçarra,Pará,437515.43,253450.29,5,-6.438129394271269,-48.87494439246003
23.336/0001-61,Market 412 Serviços (MEI),Serviços (MEI),Moju,Pará,21264.03,14642.2,4,-1.8810594338036228,-48.76476714827067
91.387/0001-53,Market 745 Vestuário,Vestuário,Piçarra,Pará,238434.12,210492.25,1,-6.439298120994371,-48.869206925622954
89.827/0001-40,Market 609 Vestuário,Vestuário,São Félix do Xingu,Pará,494668.13,416064.05,3,-6.641085985723732,-51.996743928090666
70.186/0001-35,Market 241 Saúde,Saúde,Breves,Pará,213700.71,145422.26,7,-1.6817290708662884,-50.47345708816587
30.742/0001-26,Market 193 Saúde,Saúde,Breves,Pará,456691.26,171689.8,10,-1.6773155799908717,-50.485628246320736
44.386/0001-66,Market 596 Logística,Logística,Aveiro,Pará,87565.12,51563.09,4,-3.60433584693102,-55.335656658684016
64.951/0001-92,Market 219 Saúde,Saúde,Limoeiro do Ajuru,Pará,469671.75,290599.83,4,-1.8956642235933616,-49.387129979929725
26.112/0001-50,Market 861 Serviços (MEI),Serviços (MEI),Acará,Pará,8281.57,7100.03,1,-1.9665357497093783,-48.20008491808466
58.856/0001-32,Market 727 Serviços (MEI),Serviços (MEI),Igarapé-Açu,Pará,27473.99,10137.39,11,-1.134994939482265,-47.621202715114364
10.104/0001-67,Market 856 Vestuário,Vestuário,Mojuí dos Campos,Pará,28251.63,26600.47,1,-2.6864825857949195,-54.64483841423625
43.191/0001-61,Market 153 Logística,Logística,Curuçá,Pará,727903.15,362627.77,8,-0.724377256355042,-47.84440416189105
70.431/0001-65,Market 196 Saúde,Saúde,Pacajá,Pará,181169.32,91169.52,7,-3.843023774487511,-50.63452386021768
73.912/0001-89,Market 873 Serviços (MEI),Serviços (MEI),Aveiro,Pará,10805.3,5171.82,12,-3.6064447895201184,-55.32984163924855
98.365/0001-31,Market 802 Tecnologia,Tecnologia,Santa Bárbara do Pará,Pará,897003.32,319619.0,11,-1.2324216458067219,-48.28551117184142
20.610/0001-36,Market 538 Logística,Logística,Ananindeua,Pará,297984.66,220700.13,2,-1.3633830721736702,-48.365144028857216
75.137/0001-36,Market 804 Vestuário,Vestuário,Santo Antônio do Tauá,Pará,664181.48,355419.74,11,-1.144973220615667,-48.132094472668186
74.978/0001-72,Market 191 Tecnologia,Tecnologia,Rio Maria,Pará,988727.67,348129.61,11,-7.3113474899646915,-50.015370942849714
33.332/0001-81,Market 993 Vestuário,Vestuário,Eldorado do Carajás,Pará,140990.36,92352.06,4,-6.110170784856058,-49.360189580260595
73.203/0001-35,Market 643 Saúde,Saúde,Vitória do Xingu,Pará,103994.41,63437.5,8,-2.8894903716596128,-51.99978775319051
13.838/0001-22,Market 379 Logística,Logística,São Caetano de Odivelas,Pará,581153.04,420438.82,6,-0.7562253812719404,-48.0203833730612
13.202/0001-86,Market 780 Vestuário,Vestuário,Limoeiro do Ajuru,Pará,300395.47,176256.01,5,-1.8991738979660058,-49.37360256114275
19.763/0001-26,Market 320 Vestuário,Vestuário,Breves,Pará,52919.5,34791.17,5,-1.6873147881684292,-50.47911953820753
46.370/0001-40,Market 524 Logística,Logística,Nova Ipixuna,Pará,379372.25,205391.76,10,-4.911887758355866,-49.31719978547915
13.682/0001-70,Market 439 Saúde,Saúde,Santarém,Pará,496318.63,266444.18,14,-2.438170609254849,-54.70423622515493
51.916/0001-24,Market 817 Tecnologia,Tecnologia,Bonito,Pará,649617.73,295071.94,12,-1.3598961494373545,-47.3133395413388
81.550/0001-77,Market 975 Saúde,Saúde,Acará,Pará,556722.58,259772.47,12,-1.9634191427409315,-48.195363610498575
76.570/0001-80,Market 351 Logística,Logística,Moju,Pará,187570.36,124009.1,3,-1.8810837014706263,-48.77591578328473
26.898/0001-88,Market 429 Saúde,Saúde,Ourém,Pará,795278.09,376795.87,11,-1.5525096636523337,-47.11234071328308
19.626/0001-95,Market 183 Vestuário,Vestuário,Sapucaia,Pará,501644.99,237526.06,10,-6.93860461991859,-49.67898798751052
88.590/0001-57,Market 340 Saúde,Saúde,Tailândia,Pará,554353.2,254967.77,8,-2.9519565220271953,-48.95774544504216
56.695/0001-48,Market 756 Tecnologia,Tecnologia,Rio Maria,Pará,579646.34,345325.04,5,-7.316362956240342,-50.024088741305874
22.304/0001-91,Market 186 Saúde,Saúde,Anajás,Pará,47025.01,38764.32,4,-0.9939900285981896,-49.94029086703778
51.955/0001-70,Market 169 Serviços (MEI),Serviços (MEI),Marituba,Pará,51998.21,20674.67,12,-1.356758472633653,-48.333294270128484
11.902/0001-85,Market 327 Vestuário,Vestuário,Bragança,Pará,217002.31,155464.09,4,-1.0472284109010426,-46.77214892399463
43.647/0001-63,Market 953 Serviços (MEI),Serviços (MEI),Santa Maria das Barreiras,Pará,20846.76,12318.96,6,-8.862601554391885,-49.71615785838544
53.618/0001-11,Market 150 Saúde,Saúde,Castanhal,Pará,197826.64,155575.94,4,-1.2951651980002448,-47.93307090904645
84.564/0001-83,Market 962 Alimentação,Alimentação,Melgaço,Pará,472388.3,221904.92,9,-1.6627474935671802,-50.713270415095785
58.969/0001-44,Market 283 Tecnologia,Tecnologia,São Francisco do Pará,Pará,79175.52,55208.91,4,-1.1749188787801668,-47.79188389756236
76.975/0001-17,Market 248 Alimentação,Alimentação,Redenção,Pará,193888.03,79489.86,8,-8.029969704716281,-50.02388938273904
98.531/0001-55,Market 570 Logística,Logística,Curralinho,Pará,229609.07,170317.69,2,-1.8133234228806252,-49.79633807453867
70.827/0001-89,Market 306 Tecnologia,Tecnologia,Uruará,Pará,1086155.4,352741.11,14,-3.710761449956308,-53.743335609153974
61.263/0001-54,Market 231 Saúde,Saúde,Bagre,Pará,802361.66,351554.14,12,-1.904927662909751,-50.168391123390336
16.565/0001-60,Market 725 Vestuário,Vestuário,São João do Araguaia,Pará,264128.25,200841.54,2,-5.3572320264356135,-48.79015193053285
59.878/0001-14,Market 304 Saúde,Saúde,Nova Timboteua,Pará,508240.33,342874.96,5,-1.2109259794180052,-47.38677022545945
83.108/0001-43,Market 159 Logística,Logística,São Félix do Xingu,Pará,421863.75,363592.48,2,-6.650055896950706,-51.984266624867814
53.232/0001-91,Market 953 Vestuário,Vestuário,Novo Repartimento,Pará,254406.79,118428.07,7,-4.250088157417838,-49.933720168467005
80.426/0001-12,Market 646 Vestuário,Vestuário,Pau D'Arco,Pará,134843.32,73313.79,6,-7.534607909897394,-50.054966380046444
15.323/0001-95,Market 771 Saúde,Saúde,Piçarra,Pará,478104.83,220865.85,12,-6.438662122321001,-48.87528344735953
54.376/0001-83,Market 240 Vestuário,Vestuário,Bagre,Pará,135118.93,45937.36,11,-1.9003685289219459,-50.166459892641456
88.706/0001-88,Market 724 Saúde,Saúde,Redenção,Pará,939938.17,439516.78,9,-8.032729881990234,-50.0307695601517
16.623/0001-69,Market 785 Tecnologia,Tecnologia,Chaves,Pará,515361.12,285169.77,6,0.15115860093734293,-49.91163871003065
67.337/0001-29,Market 889 Saúde,Saúde,Tailândia,Pará,207294.74,87620.76,12,-2.9381961723871646,-48.95587078504641
70.710/0001-68,Market 895 Tecnologia,Tecnologia,Primavera,Pará,578483.4,388852.11,8,-0.9393572731744159,-47.09843425918048
37.602/0001-29,Market 545 Serviços (MEI),Serviços (MEI),Curionópolis,Pará,58423.78,20406.2,12,-6.103881107639031,-49.59105862974939
68.723/0001-34,Market 536 Saúde,Saúde,Óbidos,Pará,444841.76,423495.93,1,-1.9115696447835773,-55.52589393938254
59.474/0001-14,Market 885 Vestuário,Vestuário,Eldorado do Carajás,Pará,364246.38,343924.79,1,-6.111139202526005,-49.350383310676555
16.562/0001-53,Market 471 Logística,Logística,São Félix do Xingu,Pará,181204.29,74760.47,8,-6.644253349104399,-51.99729459622392
37.182/0001-57,Market 789 Logística,Logística,Goianésia do Pará,Pará,430688.46,230965.32,13,-3.8494721479797733,-49.10291356236712
45.975/0001-23,Market 884 Logística,Logística,Conceição do Araguaia,Pará,327942.09,286016.97,1,-8.262289958763184,-49.26957446818478
90.648/0001-29,Market 664 Vestuário,Vestuário,Santa Luzia do Pará,Pará,114932.64,49871.96,13,-1.509100268420673,-46.90904113017121
93.767/0001-18,Market 889 Tecnologia,Tecnologia,São Miguel do Guamá,Pará,426832.83,302414.17,5,-1.632059172397989,-47.48050776706994
87.570/0001-86,Market 108 Saúde,Saúde,Marituba,Pará,234839.71,140179.72,8,-1.3481280937035967,-48.34407142130605
29.637/0001-84,Market 231 Tecnologia,Tecnologia,Água Azul do Norte,Pará,574677.23,341271.46,13,-6.785710438668398,-50.47347585990207
83.116/0001-19,Market 506 Saúde,Saúde,Nova Esperança do Piriá,Pará,305238.58,126477.55,11,-2.2644930613796603,-46.963421884279825
74.777/0001-19,Market 487 Alimentação,Alimentação,Belterra,Pará,1040264.6,402554.73,10,-3.0461009977125606,-54.94062664543768
92.844/0001-40,Market 989 Saúde,Saúde,Augusto Corrêa,Pará,588245.5,319836.09,6,-1.0232350945838495,-46.63167499738402
76.675/0001-67,Market 994 Logística,Logística,Igarapé-Miri,Pará,226386.43,171657.29,4,-1.977749693638414,-48.962636446957546
42.370/0001-33,Market 699 Logística,Logística,Muaná,Pará,343483.8,224403.39,6,-1.5306373803399478,-49.20985207072228
77.368/0001-61,Market 478 Serviços (MEI),Serviços (MEI),Magalhães Barata,Pará,29168.07,19951.96,6,-0.7937218251677379,-47.59053215257336
81.800/0001-19,Market 601 Tecnologia,Tecnologia,Trairão,Pará,1054880.2,430124.6,9,-4.575587912176093,-55.945010154816885
92.121/0001-25,Market 781 Tecnologia,Tecnologia,Marabá,Pará,378412.58,237844.61,4,-5.353069005201384,-49.132019344374754
32.886/0001-23,Market 639 Vestuário,Vestuário,Abel Figueiredo,Pará,593724.42,259562.12,12,-4.9502469013540304,-48.39622747197672
62.854/0001-86,Market 552 Logística,Logística,Tucumã,Pará,416044.3,226137.51,8,-6.744126893334848,-50.054855741765785
90.513/0001-30,Market 657 Alimentação,Alimentação,São Domingos do Araguaia,Pará,456769.53,218327.5,7,-5.542840890559141,-48.735150096209026
61.533/0001-90,Market 764 Vestuário,Vestuário,Mãe do Rio,Pará,304962.08,224584.25,2,-2.0496999324573855,-47.5504597736609
32.518/0001-11,Market 268 Vestuário,Vestuário,Nova Esperança do Piriá,Pará,79274.11,38081.7,7,-2.2603236552980284,-46.967448726091725
63.219/0001-74,Market 684 Alimentação,Alimentação,Ulianópolis,Pará,536406.14,331687.35,8,-3.744102455116429,-47.32937758887529
64.328/0001-19,Market 465 Alimentação,Alimentação,Piçarra,Pará,478773.29,372023.8,2,-6.4494457663669955,-48.86901687763231
69.148/0001-80,Market 354 Saúde,Saúde,Cachoeira do Piriá,Pará,662743.09,364359.63,5,-1.7528654188276833,-46.546445663248285
92.183/0001-69,Market 694 Vestuário,Vestuário,Abel Figueiredo,Pará,672909.1,383124.29,6,-4.949876108728136,-48.39262195665945
72.467/0001-98,Market 596 Tecnologia,Tecnologia,Anapu,Pará,284534.33,114707.25,11,-3.4672222951923364,-51.198049443994044
22.908/0001-94,Market 152 Alimentação,Alimentação,Primavera,Pará,967359.77,345405.2,12,-0.9340278308866697,-47.10323074081474
94.869/0001-87,Market 415 Tecnologia,Tecnologia,Soure,Pará,415388.73,316770.01,3,-0.7180560861504123,-48.52960639905753
54.761/0001-86,Market 183 Logística,Logística,Medicilândia,Pará,262751.79,208469.14,5,-3.4406185790393207,-52.89340322318126
75.340/0001-57,Market 156 Logística,Logística,São Miguel do Guamá,Pará,60845.55,52795.87,3,-1.6319422163875057,-47.4799391083903
80.928/0001-66,Market 898 Saúde,Saúde,Tracuateua,Pará,371825.01,218778.05,5,-1.0793243599034144,-46.89841285812165
73.917/0001-30,Market 642 Serviços (MEI),Serviços (MEI),Breves,Pará,18380.15,12243.51,10,-1.6792430057948906,-50.48300342283214
42.213/0001-49,Market 506 Alimentação,Alimentação,Anapu,Pará,204820.4,109433.23,9,-3.4736727365387843,-51.20283131793325
44.514/0001-89,Market 102 Alimentação,Alimentação,Itaituba,Pará,513040.22,294439.1,5,-4.272534298341574,-55.98226544077618
54.806/0001-38,Market 242 Tecnologia,Tecnologia,Mojuí dos Campos,Pará,907894.07,381916.1,13,-2.678005378003717,-54.634785031815206
18.431/0001-35,Market 172 Vestuário,Vestuário,São João do Araguaia,Pará,596510.74,312995.43,12,-5.351127517844476,-48.79591931566075
19.583/0001-61,Market 364 Logística,Logística,Colares,Pará,355726.65,304690.92,1,-0.9366623442458435,-48.288783290418834
81.308/0001-13,Market 277 Vestuário,Vestuário,Mocajuba,Pará,613373.48,278445.18,10,-2.590222080766672,-49.49900756732649
67.243/0001-34,Market 928 Tecnologia,Tecnologia,Colares,Pará,1142551.0,393000.57,11,-0.9376191149081636,-48.29011975995683
11.932/0001-76,Market 958 Alimentação,Alimentação,Cametá,Pará,687667.43,410595.35,4,-2.245438231255946,-49.48964515371694
81.802/0001-65,Market 299 Vestuário,Vestuário,Santa Luzia do Pará,Pará,137783.58,71214.45,11,-1.5089398706181703,-46.906224103079644
11.186/0001-84,Market 762 Alimentação,Alimentação,Oeiras do Pará,Pará,972263.42,367454.77,11,-2.006468125066597,-49.85672233973477
75.827/0001-41,Market 910 Vestuário,Vestuário,Peixe-Boi,Pará,93429.53,68098.57,3,-1.1983818042112278,-47.3148993241615
79.515/0001-57,Market 911 Logística,Logística,Augusto Corrêa,Pará,521472.57,341775.3,10,-1.0267008180190964,-46.64105230974032
15.172/0001-20,Market 973 Serviços (MEI),Serviços (MEI),Água Azul do Norte,Pará,38127.05,16497.59,8,-6.786096670689593,-50.47782845271549
72.191/0001-51,Market 765 Alimentação,Alimentação,São Francisco do Pará,Pará,665326.84,262343.58,10,-1.1669692327861736,-47.79375539799827
47.785/0001-55,Market 181 Alimentação,Alimentação,Óbidos,Pará,981582.69,399196.29,9,-1.9107543935265914,-55.52050148993192
62.687/0001-17,Market 662 Tecnologia,Tecnologia,Cachoeira do Arari,Pará,64376.9,32810.19,6,-1.0163426426696942,-48.9580665519324
39.714/0001-21,Market 957 Alimentação,Alimentação,Santa Maria das Barreiras,Pará,383366.99,304346.07,5,-8.874633225128308,-49.70332219871851
70.322/0001-46,Market 148 Saúde,Saúde,Faro,Pará,617964.51,289810.59,7,-2.1695165541824695,-56.75108679902374
46.484/0001-39,Market 921 Saúde,Saúde,Bagre,Pará,393699.11,326320.83,4,-1.905354494365721,-50.156881814992076
26.204/0001-17,Market 203 Vestuário,Vestuário,Terra Alta,Pará,211518.57,138278.41,10,-1.0430316304050458,-47.91985239293721
72.786/0001-22,Market 681 Alimentação,Alimentação,Santa Izabel do Pará,Pará,256173.99,104211.35,9,-1.3006256323901426,-48.15686953783758
23.793/0001-42,Market 181 Serviços (MEI),Serviços (MEI),Floresta do Araguaia,Pará,35497.23,20485.75,14,-7.773818423091575,-49.4000780456623
57.257/0001-63,Market 136 Saúde,Saúde,Salvaterra,Pará,241721.88,142975.59,8,-0.7578918456181718,-48.514366999218076
81.391/0001-22,Market 380 Tecnologia,Tecnologia,São Caetano de Odivelas,Pará,405591.19,233429.93,6,-0.7466778137350376,-48.02004585473272
71.983/0001-22,Market 745 Logística,Logística,Santarém Novo,Pará,106267.9,40301.42,13,-0.9285463067432566,-47.40002160396889
48.558/0001-25,Market 817 Logística,Logística,Bom Jesus do Tocantins,Pará,597390.02,223661.78,14,-5.016672909656055,-48.60174491675232
87.973/0001-26,Market 788 Vestuário,Vestuário,Garrafão do Norte,Pará,145317.78,62446.82,8,-2.2256355677787267,-47.05348909323679
91.624/0001-23,Market 459 Saúde,Saúde,Cametá,Pará,189492.5,109014.6,6,-2.2435683599483935,-49.501936687350614
95.108/0001-23,Market 887 Vestuário,Vestuário,São Domingos do Araguaia,Pará,375473.29,130118.87,12,-5.54389177307749,-48.72974480523421
60.880/0001-85,Market 998 Tecnologia,Tecnologia,Uruará,Pará,1307240.51,396332.09,14,-3.7228641105331017,-53.74071101658972
76.825/0001-78,Market 164 Vestuário,Vestuário,Capanema,Pará,479056.35,265183.24,6,-1.2012721814605567,-47.173451446998946
78.887/0001-81,Market 123 Logística,Logística,São Sebastião da Boa Vista,Pará,149662.05,95323.44,4,-1.7204426805896396,-49.537010428643526
88.964/0001-90,Market 618 Saúde,Saúde,Anapu,Pará,141818.12,59260.81,13,-3.4794249354298943,-51.20780607531541
81.804/0001-87,Market 921 Serviços (MEI),Serviços (MEI),Brejo Grande do Araguaia,Pará,9517.42,3997.3,13,-5.701159009470775,-48.51995108471899
33.868/0001-97,Market 471 Logística,Logística,Quatipuru,Pará,392429.5,143505.99,10,-0.8939045576603409,-47.000898055997816
19.831/0001-10,Market 302 Logística,Logística,Floresta do Araguaia,Pará,476655.11,377163.46,2,-7.777782926418108,-49.403952580620164
18.117/0001-44,Market 751 Serviços (MEI),Serviços (MEI),São Domingos do Capim,Pará,53947.63,18790.1,11,-1.6705878643160068,-47.7773024228747
24.914/0001-50,Market 886 Vestuário,Vestuário,Marituba,Pará,480506.64,356575.62,2,-1.3502836273109367,-48.3405436289592
73.910/0001-25,Market 329 Logística,Logística,Abaetetuba,Pará,782670.57,323304.43,11,-1.7276335346301095,-48.8859310851991
42.786/0001-17,Market 261 Vestuário,Vestuário,Chaves,Pará,649391.87,378592.76,5,0.1506147640787525,-49.90591169560962
15.625/0001-23,Market 876 Logística,Logística,Ananindeua,Pará,1484301.87,435506.15,14,-1.3717466283420428,-48.3722706965523
10.509/0001-61,Market 974 Logística,Logística,Castanhal,Pará,421006.7,322542.29,2,-1.2992398423808444,-47.92730804112438
78.681/0001-14,Market 268 Logística,Logística,Oeiras do Pará,Pará,72317.81,65975.9,1,-1.9961491582408792,-49.84630200774661
68.854/0001-38,Market 703 Alimentação,Alimentação,Altamira,Pará,84879.92,59330.54,8,-3.198906993902429,-52.211783165579924
41.182/0001-93,Market 298 Serviços (MEI),Serviços (MEI),Curionópolis,Pará,53914.19,23144.39,13,-6.108245749621785,-49.59634196728987
33.723/0001-70,Market 743 Alimentação,Alimentação,Capitão Poço,Pará,311033.24,267946.96,1,-1.7445380856045858,-47.05293697581743
17.655/0001-74,Market 411 Serviços (MEI),Serviços (MEI),Santa Luzia do Pará,Pará,9539.01,3227.56,11,-1.5220473851810878,-46.9104616545966
32.201/0001-70,Market 247 Serviços (MEI),Serviços (MEI),Santa Maria do Pará,Pará,10419.79,7706.87,7,-1.3539092848035208,-47.572874350853695
66.904/0001-15,Market 288 Logística,Logística,Faro,Pará,83043.56,70940.69,2,-2.1686598391607563,-56.738362768465144
74.936/0001-45,Market 149 Tecnologia,Tecnologia,Juruti,Pará,1115735.02,383441.46,13,-2.1593361109024056,-56.10227621120563
30.722/0001-66,Market 703 Serviços (MEI),Serviços (MEI),Ipixuna do Pará,Pará,18108.71,16604.75,1,-2.556416782745857,-47.50405655236133
55.317/0001-37,Market 706 Tecnologia,Tecnologia,Capanema,Pará,558511.52,285525.22,8,-1.1961119350965532,-47.17869809590129
63.383/0001-32,Market 538 Logística,Logística,Moju,Pará,256675.48,111934.14,8,-1.8895021254034519,-48.77042247387776
36.773/0001-26,Market 872 Alimentação,Alimentação,Castanhal,Pará,292292.95,120766.58,9,-1.2981873064554665,-47.93060589796203
37.666/0001-87,Market 238 Alimentação,Alimentação,Itaituba,Pará,690398.17,342014.3,11,-4.268467883446514,-55.98687836869555
61.746/0001-87,Market 493 Saúde,Saúde,Pau D'Arco,Pará,217712.13,160395.73,4,-7.524332337746455,-50.0492618171648
71.188/0001-29,Market 468 Vestuário,Vestuário,Cachoeira do Arari,Pará,120827.87,65456.87,8,-1.004523403291289,-48.9693284947017
57.849/0001-52,Market 778 Logística,Logística,Castanhal,Pará,60828.83,22762.51,14,-1.295642617254636,-47.930097166296086
17.943/0001-17,Market 890 Alimentação,Alimentação,São Geraldo do Araguaia,Pará,312275.16,222727.19,5,-6.397696979373775,-48.543704508272825
13.924/0001-36,Market 220 Logística,Logística,Bragança,Pará,540855.72,326354.97,8,-1.052922462582502,-46.758385966679214
12.913/0001-70,Market 948 Vestuário,Vestuário,Cachoeira do Piriá,Pará,460732.43,380749.68,2,-1.7646903490278272,-46.539318336472775
42.704/0001-50,Market 771 Serviços (MEI),Serviços (MEI),Senador José Porfírio,Pará,17181.28,13935.21,2,-2.5860189942116816,-51.9519345671919
69.372/0001-58,Market 799 Tecnologia,Tecnologia,Cachoeira do Piriá,Pará,560105.72,295283.97,6,-1.7561156187515916,-46.53303781112641
29.347/0001-17,Market 215 Saúde,Saúde,Mocajuba,Pará,423690.55,372520.29,1,-2.576931062892222,-49.50527304761871
83.471/0001-54,Market 673 Serviços (MEI),Serviços (MEI),Quatipuru,Pará,34344.64,20569.49,9,-0.9028736701658564,-47.01012382316047
59.463/0001-61,Market 803 Alimentação,Alimentação,Palestina do Pará,Pará,86024.77,60284.42,6,-5.734391650337331,-48.32434462796348
64.521/0001-47,Market 992 Vestuário,Vestuário,Igarapé-Açu,Pará,697429.69,268968.09,11,-1.1289122342929416,-47.622623182715486
92.346/0001-56,Market 328 Saúde,Saúde,Itupiranga,Pará,463820.54,163318.2,12,-5.141362647356473,-49.33090856656828
85.498/0001-82,Market 532 Serviços (MEI),Serviços (MEI),Castanhal,Pará,9566.11,6875.01,4,-1.3021132481367959,-47.933654333975845
42.238/0001-40,Market 861 Serviços (MEI),Serviços (MEI),Trairão,Pará,3023.27,2227.86,2,-4.56973301470309,-55.9457103103503
30.817/0001-11,Market 238 Tecnologia,Tecnologia,São Domingos do Araguaia,Pará,759337.58,442419.24,4,-5.54128031928196,-48.72762772403764
22.590/0001-87,Market 852 Alimentação,Alimentação,Água Azul do Norte,Pará,968793.52,340188.45,11,-6.775855562406538,-50.47880008025005
42.102/0001-57,Market 807 Tecnologia,Tecnologia,Eldorado do Carajás,Pará,693054.29,362737.38,13,-6.1092437182716015,-49.3587986169039
92.335/0001-90,Market 907 Vestuário,Vestuário,Muaná,Pará,424729.42,298425.29,3,-1.5257845627216584,-49.21149016543442
15.409/0001-17,Market 467 Logística,Logística,Ananindeua,Pará,866194.33,413690.76,7,-1.358136569974389,-48.364414910083326
93.548/0001-73,Market 538 Alimentação,Alimentação,Salvaterra,Pará,383926.23,201683.75,8,-0.7483641240302685,-48.50908789283879
54.478/0001-94,Market 610 Saúde,Saúde,Terra Santa,Pará,506342.5,260050.98,10,-2.097448501205079,-56.48232847635265
80.211/0001-41,Market 727 Logística,Logística,Mojuí dos Campos,Pará,441964.3,126363.84,14,-2.685705261258752,-54.63400167377811
83.896/0001-32,Market 691 Alimentação,Alimentação,Santa Izabel do Pará,Pará,122413.04,99648.46,3,-1.2972688854111742,-48.16127254438801
24.639/0001-63,Market 313 Saúde,Saúde,Capanema,Pará,215226.34,191058.55,1,-1.19610806764173,-47.18383013990491
26.781/0001-64,Market 245 Tecnologia,Tecnologia,Nova Ipixuna,Pará,475897.12,286362.44,5,-4.913179229655381,-49.30966522472244
91.462/0001-67,Market 375 Serviços (MEI),Serviços (MEI),Monte Alegre,Pará,54164.12,20736.02,11,-2.004636615340574,-54.063825579411386
12.485/0001-63,Market 797 Tecnologia,Tecnologia,Brasil Novo,Pará,65749.52,39438.3,10,-3.2614038067041213,-52.52549384573717
51.860/0001-62,Market 852 Tecnologia,Tecnologia,São Francisco do Pará,Pará,338288.47,233573.23,7,-1.1613160239708193,-47.788720370407674
59.623/0001-60,Market 480 Vestuário,Vestuário,Marapanim,Pará,113853.3,60376.11,10,-0.7114794392518674,-47.63304815869367
15.507/0001-55,Market 836 Serviços (MEI),Serviços (MEI),Magalhães Barata,Pará,8444.2,4487.77,10,-0.7907994345968467,-47.595699123551235
30.394/0001-19,Market 569 Vestuário,Vestuário,Jacareacanga,Pará,748094.51,379681.71,12,-6.217637099771992,-57.761375279467494
26.652/0001-17,Market 903 Saúde,Saúde,Magalhães Barata,Pará,330774.1,212881.01,4,-0.8009190763405877,-47.59750723556546
96.307/0001-92,Market 275 Serviços (MEI),Serviços (MEI),Placas,Pará,22961.24,15661.52,4,-3.8703113299738945,-54.21574459565445
98.441/0001-34,Market 271 Alimentação,Alimentação,Santo Antônio do Tauá,Pará,540563.31,367949.01,6,-1.1567150311129093,-48.133150520550814
94.619/0001-22,Market 952 Saúde,Saúde,Ponta de Pedras,Pará,553352.63,411188.36,4,-1.3914076271194467,-48.83356440120606
63.427/0001-45,Market 941 Alimentação,Alimentação,Curuá,Pará,401049.01,172688.95,11,-1.9113814630678108,-54.120697696761894
72.606/0001-66,Market 684 Logística,Logística,Santana do Araguaia,Pará,494512.94,318826.79,11,-9.444645137128333,-50.3349459001903
20.805/0001-49,Market 304 Vestuário,Vestuário,Igarapé-Miri,Pará,839055.46,426204.73,8,-1.981664686335375,-48.953396943221826
18.826/0001-46,Market 880 Alimentação,Alimentação,Faro,Pará,598466.21,310431.33,6,-2.1798674498929183,-56.743032592706605
46.810/0001-95,Market 143 Logística,Logística,Novo Repartimento,Pará,323307.87,110833.16,11,-4.248930946739544,-49.933858785113365
80.172/0001-54,Market 715 Logística,Logística,Curuçá,Pará,398832.88,350638.57,1,-0.7244996952745593,-47.848190551079554
86.274/0001-34,Market 764 Vestuário,Vestuário,Santana do Araguaia,Pará,254194.88,153436.18,10,-9.436406092343146,-50.33583847510177
29.684/0001-24,Market 792 Alimentação,Alimentação,Oriximiná,Pará,371329.41,322428.62,3,-1.7621168385392565,-55.86666365326642
67.771/0001-73,Market 486 Alimentação,Alimentação,Barcarena,Pará,452324.0,133449.13,14,-1.5069807662558565,-48.63181151555062
45.355/0001-31,Market 873 Alimentação,Alimentação,São Domingos do Capim,Pará,274928.82,107515.85,11,-1.6709795838142678,-47.777821983684504
32.245/0001-33,Market 619 Serviços (MEI),Serviços (MEI),Cametá,Pará,18065.75,9384.44,9,-2.242427749943622,-49.49743518314294
67.601/0001-74,Market 215 Tecnologia,Tecnologia,Cumaru do Norte,Pará,212687.87,156297.76,4,-7.824396685296721,-50.78737812759604
57.303/0001-36,Market 879 Vestuário,Vestuário,São Sebastião da Boa Vista,Pará,142323.49,64955.67,10,-1.715605538475378,-49.54684342241005
66.619/0001-60,Market 631 Tecnologia,Tecnologia,Afuá,Pará,331834.1,294389.7,1,-0.14971357320555229,-50.383270612689664
97.744/0001-32,Market 443 Saúde,Saúde,Santarém,Pará,230387.73,167488.13,5,-2.4374996561572617,-54.70426593552894
93.161/0001-65,Market 455 Serviços (MEI),Serviços (MEI),Marapanim,Pará,16685.57,10510.61,8,-0.7155674893134758,-47.627320500857806
67.643/0001-40,Market 919 Saúde,Saúde,Marapanim,Pará,104616.99,87934.57,2,-0.7126178814580372,-47.63851162071133
21.742/0001-30,Market 325 Saúde,Saúde,Rurópolis,Pará,598626.14,321007.64,14,-4.09976575634601,-54.9159365897877
31.779/0001-83,Market 894 Alimentação,Alimentação,Nova Ipixuna,Pará,268376.56,97179.41,10,-4.90428673922499,-49.313448072899206
35.866/0001-19,Market 775 Tecnologia,Tecnologia,Santarém Novo,Pará,353028.53,132613.98,10,-0.9250515552633112,-47.40159591029091
43.760/0001-55,Market 859 Logística,Logística,Jacareacanga,Pará,575957.92,337943.7,5,-6.219148658173134,-57.75610570351246
37.607/0001-18,Market 837 Tecnologia,Tecnologia,Acará,Pará,319590.95,188752.93,5,-1.9673437928178523,-48.205490825697886
88.523/0001-19,Market 409 Alimentação,Alimentação,Eldorado do Carajás,Pará,406937.87,232005.14,13,-6.109725595125438,-49.36073061723105
26.156/0001-91,Market 421 Logística,Logística,Parauapebas,Pará,356416.76,264604.61,3,-6.074385661394911,-49.89434937617823
14.445/0001-88,Market 512 Saúde,Saúde,Conceição do Araguaia,Pará,380299.67,187039.49,7,-8.257740790719131,-49.26125027789859
81.879/0001-18,Market 299 Serviços (MEI),Serviços (MEI),Floresta do Araguaia,Pará,22794.59,15110.43,3,-7.775501250780843,-49.390528524537864
97.874/0001-34,Market 978 Saúde,Saúde,Inhangapi,Pará,72708.89,35579.22,13,-1.4223979895096839,-47.92292019188806
43.998/0001-50,Market 626 Serviços (MEI),Serviços (MEI),Sapucaia,Pará,35810.17,21836.98,12,-6.939453644098801,-49.68181252662082
11.187/0001-73,Market 294 Saúde,Saúde,Salvaterra,Pará,390586.37,294067.5,6,-0.7545608977615457,-48.514055772937866
59.161/0001-76,Market 201 Saúde,Saúde,Breves,Pará,529103.7,343739.69,3,-1.6805003417531548,-50.485884664536805
62.617/0001-36,Market 706 Vestuário,Vestuário,Itupiranga,Pará,327112.94,169531.8,9,-5.12779426907422,-49.33121114541281
13.974/0001-90,Market 599 Alimentação,Alimentação,Mojuí dos Campos,Pará,889672.52,410430.94,8,-2.6868039502345815,-54.644478649877996
34.602/0001-68,Market 365 Alimentação,Alimentação,Breu Branco,Pará,1243976.48,440758.3,13,-3.7490842708987095,-49.56173669569562
20.680/0001-68,Market 497 Tecnologia,Tecnologia,Santa Izabel do Pará,Pará,685607.77,353051.66,6,-1.2975551221906967,-48.163355026402805
94.988/0001-11,Market 971 Alimentação,Alimentação,Quatipuru,Pará,124056.06,107063.94,2,-0.8903957276701803,-46.99502900703467
18.439/0001-19,Market 375 Vestuário,Vestuário,Redenção,Pará,239220.39,156371.46,10,-8.024519123635486,-50.023848255793524
24.679/0001-85,Market 908 Serviços (MEI),Serviços (MEI),Tomé-Açu,Pará,18708.14,9345.69,9,-2.4194664054199904,-48.14640747334028
45.616/0001-44,Market 390 Saúde,Saúde,Marabá,Pará,144461.6,103018.38,3,-5.360943340709253,-49.120196204254455
12.562/0001-35,Market 794 Tecnologia,Tecnologia,Breu Branco,Pará,711837.74,308307.51,9,-3.759138228455856,-49.56494976416291
61.280/0001-98,Market 914 Saúde,Saúde,São Domingos do Capim,Pará,50051.97,23625.73,9,-1.6754799354838985,-47.77652749189869
67.353/0001-53,Market 694 Serviços (MEI),Serviços (MEI),Novo Progresso,Pará,2024.76,1474.25,4,-7.0157768545645665,-55.387765205623154
74.774/0001-54,Market 271 Vestuário,Vestuário,Vitória do Xingu,Pará,407787.04,307652.5,5,-2.875825442232258,-52.00662434025908
83.858/0001-15,Market 228 Alimentação,Alimentação,Acará,Pará,209625.99,124706.88,11,-1.9548308706548507,-48.19257105881104
90.318/0001-57,Market 855 Logística,Logística,Tomé-Açu,Pará,137495.34,104229.13,5,-2.41749341686919,-48.14719695547896
84.488/0001-56,Market 187 Tecnologia,Tecnologia,Cachoeira do Arari,Pará,577790.25,260749.59,7,-1.0102744193367004,-48.96887005660381
63.448/0001-64,Market 435 Saúde,Saúde,Augusto Corrêa,Pará,51541.24,44407.07,3,-1.0163535229262342,-46.636346581999994
92.795/0001-63,Market 571 Alimentação,Alimentação,Cumaru do Norte,Pará,1241167.91,435479.93,14,-7.830477651596788,-50.7848722161171
90.678/0001-95,Market 480 Vestuário,Vestuário,Capanema,Pará,396126.62,270311.84,3,-1.1972316338198334,-47.17432119395801
45.976/0001-74,Market 170 Serviços (MEI),Serviços (MEI),Porto de Moz,Pará,19956.3,13473.32,7,-1.7501998340798917,-52.23301155180169
85.257/0001-93,Market 854 Serviços (MEI),Serviços (MEI),Novo Progresso,Pará,25464.89,21114.55,4,-7.023991010264688,-55.382840626086775
39.726/0001-60,Market 572 Saúde,Saúde,Nova Ipixuna,Pará,383594.35,362462.11,1,-4.916378373035724,-49.31440868075877
68.503/0001-22,Market 211 Vestuário,Vestuário,Irituia,Pará,359100.47,293245.38,3,-1.770835364612467,-47.441435332047945
55.580/0001-41,Market 319 Logística,Logística,Chaves,Pará,554828.14,319020.8,7,0.14803605323489658,-49.902229691773464
13.946/0001-80,Market 909 Serviços (MEI),Serviços (MEI),Bannach,Pará,28599.66,16018.57,12,-7.3417178976598665,-50.510834197060944
49.555/0001-23,Market 550 Alimentação,Alimentação,Afuá,Pará,402369.47,334833.24,3,-0.16147935219993628,-50.383079326485664
17.472/0001-70,Market 635 Saúde,Saúde,Limoeiro do Ajuru,Pará,341844.87,212235.05,6,-1.8960403252240992,-49.379044315716285
40.322/0001-71,Market 324 Saúde,Saúde,Benevides,Pará,402669.33,186352.98,9,-1.3542836618288367,-48.2478489269452
60.811/0001-66,Market 443 Saúde,Saúde,Abaetetuba,Pará,239109.92,170234.26,5,-1.717374767063384,-48.88915325569511
17.368/0001-21,Market 593 Tecnologia,Tecnologia,Santa Bárbara do Pará,Pará,243810.83,127599.01,7,-1.2333758202208098,-48.29163670538381
82.309/0001-92,Market 294 Serviços (MEI),Serviços (MEI),Moju,Pará,36683.11,20457.62,7,-1.8805284772638322,-48.774915844290824
15.613/0001-30,Market 482 Vestuário,Vestuário,Óbidos,Pará,548580.28,343429.24,5,-1.9211482925698316,-55.52327184022245
34.860/0001-26,Market 369 Saúde,Saúde,Tucumã,Pará,269312.74,111398.2,13,-6.745687978240348,-50.05559891175011
23.391/0001-65,Market 412 Logística,Logística,Concórdia do Pará,Pará,121902.28,87966.01,6,-1.9880297634547783,-47.94318328389885
83.300/0001-34,Market 382 Serviços (MEI),Serviços (MEI),Afuá,Pará,38322.99,24560.75,5,-0.15240652596204313,-50.38543321727908
91.272/0001-43,Market 950 Vestuário,Vestuário,Concórdia do Pará,Pará,368160.43,347897.22,1,-1.984073054924901,-47.95040752444341
32.596/0001-84,Market 454 Tecnologia,Tecnologia,Abaetetuba,Pará,1134649.9,447265.65,10,-1.7229085443256644,-48.89018160570317
47.142/0001-82,Market 511 Saúde,Saúde,Aveiro,Pará,377459.27,342032.66,1,-3.6052371290511185,-55.3257028228707
34.183/0001-60,Market 319 Alimentação,Alimentação,Oriximiná,Pará,252662.04,142786.21,12,-1.760662796023694,-55.85987036907819
81.411/0001-68,Market 730 Logística,Logística,Brejo Grande do Araguaia,Pará,122802.52,98738.95,2,-5.69586326845844,-48.52004175743143
39.683/0001-27,Market 685 Alimentação,Alimentação,Trairão,Pará,720482.23,402073.99,10,-4.574407449180761,-55.9347146036339
38.340/0001-74,Market 959 Tecnologia,Tecnologia,Sapucaia,Pará,848912.39,387329.5,11,-6.942570562813964,-49.67996850938657
68.287/0001-83,Market 611 Tecnologia,Tecnologia,Água Azul do Norte,Pará,192039.9,163572.37,1,-6.786793932958253,-50.48268979623007
22.218/0001-36,Market 590 Alimentação,Alimentação,Limoeiro do Ajuru,Pará,1194535.41,447099.75,11,-1.8947955134046248,-49.37323749101156
69.227/0001-17,Market 340 Logística,Logística,Placas,Pará,482959.67,273577.83,10,-3.871447966945547,-54.22211389290338
88.368/0001-78,Market 571 Tecnologia,Tecnologia,Oeiras do Pará,Pará,346210.36,260194.78,2,-1.9965556503702595,-49.855617402018645
24.708/0001-91,Market 430 Tecnologia,Tecnologia,Prainha,Pará,328770.58,293782.25,1,-1.8040516530831332,-53.49025967214139
17.374/0001-68,Market 601 Vestuário,Vestuário,Garrafão do Norte,Pará,716009.57,389885.12,14,-2.228192898648735,-47.05113652320301
89.353/0001-40,Market 498 Saúde,Saúde,Marabá,Pará,406950.12,229762.28,11,-5.367602123043635,-49.11904138325071
19.328/0001-47,Market 494 Alimentação,Alimentação,Bom Jesus do Tocantins,Pará,81402.14,67618.49,3,-5.015999362676106,-48.6014271894929
58.609/0001-94,Market 192 Serviços (MEI),Serviços (MEI),Brejo Grande do Araguaia,Pará,17425.25,10582.47,8,-5.704669361518887,-48.51098432123008
50.268/0001-75,Market 745 Logística,Logística,São Geraldo do Araguaia,Pará,580015.0,389877.19,5,-6.4060586591433495,-48.53225958742062
15.460/0001-33,Market 508 Saúde,Saúde,Pacajá,Pará,409122.86,171774.4,14,-3.8316797462948444,-50.631741708259604
95.696/0001-39,Market 896 Alimentação,Alimentação,Rurópolis,Pará,846642.58,302290.43,11,-4.101737547934656,-54.901918138027725
11.163/0001-78,Market 164 Tecnologia,Tecnologia,Colares,Pará,532227.44,420019.62,2,-0.9262803750981397,-48.2775196445189
92.313/0001-21,Market 803 Logística,Logística,Afuá,Pará,498515.27,362637.32,5,-0.1595820644897087,-50.38865318354603
39.446/0001-53,Market 107 Serviços (MEI),Serviços (MEI),Prainha,Pará,16981.76,7317.57,11,-1.8139287598314016,-53.48829591489923
72.559/0001-11,Market 862 Alimentação,Alimentação,Capanema,Pará,427342.06,146981.72,12,-1.1990202590603458,-47.18462106723924
48.971/0001-78,Market 682 Serviços (MEI),Serviços (MEI),Primavera,Pará,32239.12,20370.57,5,-0.9338703706361111,-47.09574715833639
61.481/0001-23,Market 972 Saúde,Saúde,São Domingos do Araguaia,Pará,410232.61,356995.43,1,-5.534648493822787,-48.73649578479556
25.189/0001-10,Market 958 Alimentação,Alimentação,Curionópolis,Pará,549603.49,445827.21,3,-6.101028848141996,-49.60206050684179
34.806/0001-22,Market 346 Saúde,Saúde,São João de Pirabas,Pará,105466.57,97429.79,1,-0.7679521622237396,-47.16437014193618
31.520/0001-42,Market 446 Vestuário,Vestuário,Abel Figueiredo,Pará,695174.88,423446.55,6,-4.94897990030968,-48.39245700780492
85.340/0001-92,Market 768 Logística,Logística,São João do Araguaia,Pará,151730.21,102257.95,3,-5.364845640514085,-48.79154229987176
45.900/0001-74,Market 959 Tecnologia,Tecnologia,Vigia,Pará,238482.67,210571.8,1,-0.8616634314967195,-48.141599043754724
54.136/0001-11,Market 486 Logística,Logística,Ourém,Pará,825456.44,376856.97,7,-1.549032211555297,-47.10956215920517
86.256/0001-64,Market 489 Vestuário,Vestuário,Santa Maria do Pará,Pará,306017.94,176407.4,6,-1.3597864586747948,-47.579080978921574
12.858/0001-69,Market 245 Logística,Logística,Mocajuba,Pará,223638.63,155846.61,3,-2.5794545540661082,-49.506093664504945
20.891/0001-53,Market 401 Vestuário,Vestuário,São Geraldo do Araguaia,Pará,433742.17,195422.25,7,-6.397629201549762,-48.542034891445795
92.351/0001-35,Market 966 Vestuário,Vestuário,Augusto Corrêa,Pará,253938.99,178822.55,3,-1.014025022184115,-46.640410305193335
68.400/0001-46,Market 126 Logística,Logística,Parauapebas,Pará,845490.92,408638.91,9,-6.062878539755741,-49.90937200141275
98.373/0001-44,Market 114 Tecnologia,Tecnologia,Marapanim,Pará,688313.01,250701.68,13,-0.7110403387046539,-47.63330299048522
14.765/0001-83,Market 121 Tecnologia,Tecnologia,Mojuí dos Campos,Pará,230098.51,153667.6,4,-2.6883768740487746,-54.647857024480466
43.524/0001-24,Market 267 Saúde,Saúde,Santa Cruz do Arari,Pará,778989.53,286380.84,14,-0.6617246092517648,-49.175133889052844
77.371/0001-47,Market 219 Vestuário,Vestuário,Jacundá,Pará,122916.7,59608.06,9,-4.458988199275465,-49.12072295129225
98.361/0001-40,Market 879 Logística,Logística,Prainha,Pará,393076.5,118140.42,14,-1.8088234166356827,-53.484307677069125
41.744/0001-13,Market 693 Logística,Logística,Rurópolis,Pará,296220.82,224097.32,2,-4.093607678423606,-54.90060377707808
87.955/0001-56,Market 235 Saúde,Saúde,Marabá,Pará,59844.97,44351.37,2,-5.35371268646064,-49.12053053414059
26.667/0001-86,Market 883 Tecnologia,Tecnologia,Acará,Pará,114078.48,67049.37,14,-1.9626509080091425,-48.19155091934439
64.708/0001-15,Market 795 Logística,Logística,Ipixuna do Pará,Pará,437017.48,214580.92,8,-2.56745168267689,-47.501293374061326
64.646/0001-29,Market 400 Serviços (MEI),Serviços (MEI),São Domingos do Araguaia,Pará,8017.66,4078.73,6,-5.541858748715294,-48.72460863473311
45.789/0001-82,Market 570 Serviços (MEI),Serviços (MEI),Dom Eliseu,Pará,10442.52,7883.25,2,-4.289863496937292,-47.498137473249656
76.689/0001-75,Market 470 Serviços (MEI),Serviços (MEI),Marituba,Pará,30176.68,22590.44,2,-1.3585497451987334,-48.33508032934721
33.272/0001-41,Market 906 Logística,Logística,Quatipuru,Pará,812288.51,369463.01,7,-0.8905185074660249,-47.003270317800464
49.577/0001-94,Market 724 Alimentação,Alimentação,Faro,Pará,322234.35,162600.89,11,-2.1671374742843206,-56.73710039933658
33.347/0001-49,Market 867 Serviços (MEI),Serviços (MEI),Tucumã,Pará,50493.43,22598.98,13,-6.752846341712067,-50.043667705228195
50.728/0001-98,Market 649 Serviços (MEI),Serviços (MEI),Mocajuba,Pará,26975.0,11587.76,11,-2.591123748028353,-49.50699932257515
54.352/0001-53,Market 405 Logística,Logística,São Sebastião da Boa Vista,Pará,983606.22,444699.51,10,-1.724012437533148,-49.5333507875584
42.280/0001-48,Market 607 Saúde,Saúde,Aveiro,Pará,940268.89,391180.01,12,-3.600509205260124,-55.32447893130862
58.612/0001-35,Market 403 Tecnologia,Tecnologia,Pacajá,Pará,48431.11,33646.12,5,-3.8339962120691387,-50.63893791116566
75.883/0001-74,Market 665 Serviços (MEI),Serviços (MEI),Garrafão do Norte,Pará,24887.04,18330.55,5,-2.2157561917247213,-47.0588290222133
60.618/0001-69,Market 432 Tecnologia,Tecnologia,Portel,Pará,601542.83,356777.45,5,-1.9401730186362203,-50.821745125939465
28.421/0001-62,Market 176 Logística,Logística,Augusto Corrêa,Pará,770615.33,449349.23,6,-1.0261165226116735,-46.6400318594672
30.458/0001-72,Market 971 Alimentação,Alimentação,Chaves,Pará,259639.91,87478.47,12,0.16205548324020025,-49.91529411560821
48.178/0001-50,Market 422 Alimentação,Alimentação,Nova Esperança do Piriá,Pará,366736.69,240339.76,10,-2.255706897094538,-46.967166377047604
47.778/0001-12,Market 702 Serviços (MEI),Serviços (MEI),Aurora do Pará,Pará,11905.21,9309.22,4,-2.1188052353568287,-47.55020356825508
76.285/0001-51,Market 374 Alimentação,Alimentação,Igarapé-Açu,Pará,383504.77,351258.94,1,-1.1226567765635025,-47.62712874989194
92.132/0001-71,Market 540 Alimentação,Alimentação,Ipixuna do Pará,Pará,337133.41,316902.12,1,-2.561578483688177,-47.491579378422145
16.260/0001-86,Market 467 Logística,Logística,Faro,Pará,493377.12,373467.22,4,-2.1731474733912495,-56.74539629538298
66.832/0001-54,Market 446 Logística,Logística,Breu Branco,Pará,408966.46,216076.33,12,-3.7574901427514424,-49.566905302566525
94.921/0001-94,Market 305 Serviços (MEI),Serviços (MEI),Augusto Corrêa,Pará,17705.32,15684.78,1,-1.0175417423372681,-46.632888624305885
92.915/0001-23,Market 543 Saúde,Saúde,Garrafão do Norte,Pará,728849.99,276959.4,13,-2.219087235899299,-47.05428975050674
72.463/0001-52,Market 606 Tecnologia,Tecnologia,Santo Antônio do Tauá,Pará,140379.98,98099.84,8,-1.1515292944296251,-48.131315688672736
22.419/0001-80,Market 900 Alimentação,Alimentação,Salinópolis,Pará,89542.82,68037.07,6,-0.6100401415032489,-47.359167083918244
90.425/0001-24,Market 270 Logística,Logística,Nova Esperança do Piriá,Pará,164302.59,109299.23,5,-2.2639434936199034,-46.96452757738325
46.360/0001-10,Market 495 Saúde,Saúde,Oeiras do Pará,Pará,487726.48,253696.74,11,-2.0044650671115107,-49.84898325369956
14.240/0001-51,Market 345 Alimentação,Alimentação,Limoeiro do Ajuru,Pará,482729.93,248423.64,6,-1.8958001768385828,-49.378661337017874
69.284/0001-57,Market 879 Alimentação,Alimentação,Marituba,Pará,681134.69,287043.68,10,-1.353299810040023,-48.337139641220496
34.106/0001-48,Market 926 Serviços (MEI),Serviços (MEI),Óbidos,Pará,1585.94,1187.97,5,-1.920647152144995,-55.52427634374119
76.743/0001-72,Market 669 Alimentação,Alimentação,Tucumã,Pará,415870.99,227253.27,7,-6.740253493143548,-50.04594061882826
47.201/0001-13,Market 689 Serviços (MEI),Serviços (MEI),Mojuí dos Campos,Pará,6106.2,3368.79,6,-2.6801794491836195,-54.634501756089506
64.166/0001-70,Market 403 Serviços (MEI),Serviços (MEI),Marapanim,Pará,32234.97,22220.0,3,-0.7229073987624478,-47.6379080775053
74.633/0001-65,Market 666 Saúde,Saúde,Novo Progresso,Pará,96769.25,82257.9,1,-7.01778917708354,-55.37575469656994
15.190/0001-29,Market 375 Vestuário,Vestuário,Salvaterra,Pará,751098.99,381321.77,7,-0.7621850457484419,-48.522532829619806
78.845/0001-95,Market 421 Tecnologia,Tecnologia,Tucumã,Pará,330649.24,202950.47,9,-6.746573482518411,-50.049981308224865
68.646/0001-18,Market 631 Vestuário,Vestuário,Curuçá,Pará,289872.61,91857.36,12,-0.7383992777543855,-47.842347951288346
24.425/0001-40,Market 415 Saúde,Saúde,Moju,Pará,704017.57,384411.73,5,-1.8905327358660946,-48.7656148884781
72.937/0001-27,Market 395 Logística,Logística,Floresta do Araguaia,Pará,621269.59,200754.86,12,-7.774991929866173,-49.40048112531975
12.768/0001-13,Market 268 Logística,Logística,Magalhães Barata,Pará,522156.9,290716.28,5,-0.7885855013483917,-47.60238784189665
20.200/0001-15,Market 106 Alimentação,Alimentação,Santa Izabel do Pará,Pará,913456.88,423226.46,9,-1.2925880923884747,-48.15467228402208
15.501/0001-66,Market 802 Tecnologia,Tecnologia,Cachoeira do Piriá,Pará,321556.46,222276.33,3,-1.7511948043643044,-46.54464755966969
67.865/0001-44,Market 472 Tecnologia,Tecnologia,Itupiranga,Pará,667330.43,253028.3,13,-5.132732577803471,-49.32511909601868
40.741/0001-43,Market 634 Alimentação,Alimentação,Monte Alegre,Pará,351839.84,242299.2,3,-2.007277063027781,-54.074337859327805
65.333/0001-95,Market 688 Tecnologia,Tecnologia,Bonito,Pará,376809.03,187543.28,8,-1.3564363188796515,-47.304906824569336
64.512/0001-69,Market 144 Serviços (MEI),Serviços (MEI),Nova Esperança do Piriá,Pará,12438.91,6311.64,8,-2.256726698996442,-46.96146264217097
61.414/0001-36,Market 995 Logística,Logística,Vitória do Xingu,Pará,328656.28,272681.16,3,-2.8868484009682107,-52.002144859598395
57.972/0001-46,Market 501 Alimentação,Alimentação,Marabá,Pará,232371.19,98329.54,11,-5.3569004403599925,-49.12992566668472
69.144/0001-40,Market 253 Serviços (MEI),Serviços (MEI),Augusto Corrêa,Pará,11484.78,5710.25,7,-1.0191447841165393,-46.63314888570915
11.192/0001-35,Market 639 Logística,Logística,Primavera,Pará,195375.63,112730.67,5,-0.9391812574223506,-47.09821114659571
52.837/0001-32,Market 360 Alimentação,Alimentação,Anapu,Pará,445415.21,296042.46,4,-3.47253165985377,-51.20431777404721
52.480/0001-39,Market 366 Alimentação,Alimentação,Curionópolis,Pará,64035.92,59162.76,1,-6.097979959694128,-49.60418551257753
85.697/0001-59,Market 441 Serviços (MEI),Serviços (MEI),Sapucaia,Pará,32109.17,14381.99,13,-6.950765372858516,-49.68774937953855
50.925/0001-10,Market 858 Logística,Logística,Aveiro,Pará,1323589.72,430479.82,14,-3.606978660798716,-55.32890698900585
34.323/0001-80,Market 476 Serviços (MEI),Serviços (MEI),Xinguara,Pará,76859.68,24951.63,14,-7.100451459118902,-49.9446455631358
46.379/0001-24,Market 954 Tecnologia,Tecnologia,Ponta de Pedras,Pará,952542.58,302206.12,12,-1.3900962310436025,-48.84294105311121
67.131/0001-63,Market 133 Alimentação,Alimentação,Bannach,Pará,396397.32,353358.27,1,-7.344267342365175,-50.51605089847203
25.830/0001-16,Market 833 Logística,Logística,Oriximiná,Pará,449432.34,248114.47,12,-1.7696464039686748,-55.87140535884544
27.401/0001-25,Market 613 Vestuário,Vestuário,Breves,Pará,75265.06,38761.92,13,-1.6848679887066302,-50.48284283014733
71.543/0001-19,Market 171 Serviços (MEI),Serviços (MEI),Bagre,Pará,11012.15,7623.2,4,-1.9023852968433863,-50.15764125430088
19.609/0001-20,Market 431 Saúde,Saúde,Brasil Novo,Pará,155069.68,88359.61,8,-3.2596507575380214,-52.515515077574086
30.333/0001-68,Market 112 Saúde,Saúde,Floresta do Araguaia,Pará,394789.14,171602.89,10,-7.781896118437947,-49.3907831960922
30.266/0001-90,Market 837 Logística,Logística,Belém,Pará,449311.2,381847.22,3,-1.4500846722948335,-48.5015102740663
49.327/0001-34,Market 261 Tecnologia,Tecnologia,Gurupá,Pará,415651.21,308225.38,2,-1.409142915824543,-51.645910320195036
44.478/0001-93,Market 515 Serviços (MEI),Serviços (MEI),Medicilândia,Pará,25710.72,15425.6,9,-3.4399988352837068,-52.88785587858719
72.703/0001-15,Market 404 Serviços (MEI),Serviços (MEI),Igarapé-Miri,Pará,13350.31,7378.5,9,-1.9813803616366257,-48.962460279503325
16.370/0001-93,Market 961 Tecnologia,Tecnologia,Melgaço,Pará,71949.0,46010.2,5,-1.6630155827974114,-50.71773791212995
20.998/0001-31,Market 886 Vestuário,Vestuário,Placas,Pará,341680.16,147153.55,12,-3.871190186300209,-54.222337782524
61.390/0001-56,Market 635 Tecnologia,Tecnologia,São Francisco do Pará,Pará,261932.68,234316.04,1,-1.1670414458694967,-47.80138646784426
65.159/0001-54,Market 329 Logística,Logística,Tucumã,Pará,464321.9,429168.73,1,-6.745016821983087,-50.0463552433609
42.557/0001-24,Market 564 Saúde,Saúde,Paragominas,Pará,756102.17,399997.3,14,-2.990128029340246,-47.35403393654642
49.688/0001-87,Market 497 Logística,Logística,Capanema,Pará,444051.98,281316.16,9,-1.203531873433843,-47.177889786644116
87.740/0001-41,Market 930 Tecnologia,Tecnologia,Vigia,Pará,419319.54,233116.7,8,-0.8560837898536866,-48.14652446514298
94.775/0001-58,Market 927 Serviços (MEI),Serviços (MEI),Dom Eliseu,Pará,10237.81,3810.06,10,-4.285537176347735,-47.49551215999659
38.213/0001-48,Market 259 Serviços (MEI),Serviços (MEI),Inhangapi,Pará,19435.24,15065.43,3,-1.4305168246478495,-47.91416740611037
38.477/0001-44,Market 104 Saúde,Saúde,Ananindeua,Pará,315796.93,148679.95,8,-1.3662284492502565,-48.3641852721921
95.725/0001-53,Market 406 Saúde,Saúde,Goianésia do Pará,Pará,143182.17,123197.9,2,-3.84782323753497,-49.09693349090895
12.448/0001-90,Market 928 Alimentação,Alimentação,Santa Bárbara do Pará,Pará,1019787.44,386588.62,12,-1.2330235546669936,-48.28611953622037
85.917/0001-63,Market 869 Vestuário,Vestuário,Soure,Pará,978154.55,446954.88,11,-0.7087894519157723,-48.52737163792946
64.266/0001-82,Market 144 Tecnologia,Tecnologia,Brasil Novo,Pará,249245.36,155601.07,9,-3.2682809827349404,-52.516023382828095
17.378/0001-31,Market 214 Saúde,Saúde,Almeirim,Pará,1224995.94,413532.05,14,-1.525907280456904,-52.58030346662213
53.940/0001-63,Market 862 Tecnologia,Tecnologia,Capitão Poço,Pará,333384.71,270550.82,3,-1.741615274341273,-47.058432294143266
55.774/0001-87,Market 118 Alimentação,Alimentação,Juruti,Pará,98037.84,39109.01,12,-2.1565177582821824,-56.09127748698152
27.626/0001-95,Market 628 Logística,Logística,Oeiras do Pará,Pará,112755.37,96979.97,2,-1.9956882969208356,-49.84993834434542
10.156/0001-98,Market 348 Vestuário,Vestuário,Moju,Pará,200943.12,105714.13,12,-1.891581926384099,-48.76903183979938
75.577/0001-46,Market 269 Saúde,Saúde,Palestina do Pará,Pará,228311.45,105591.59,7,-5.744849142503173,-48.324595347463486
