cnpj,empresa,setor,cidade,regiao,capital_social,investimento_inicial,anos_atividade,lat,lon
61.878/0001-11,A.C. SERVIÇOS (MEI) LTDA,Serviços (MEI),Terra Santa,Pará,17851.32,12047.5,3,-2.1043049223841055,-56.4831824654548
23.778/0001-35,A.C. LOGÍSTICA LTDA,Logística,Vitória do Xingu,Pará,529294.99,276130.48,6,-2.884672837322551,-52.00894918743833
76.978/0001-65,A.C. SAÚDE LTDA,Saúde,Curionópolis,Pará,767405.95,299161.2,11,-6.101680816478136,-49.59980641667334
80.977/0001-73,J.P. SAÚDE LTDA,Saúde,Baião,Pará,788122.08,342930.14,12,-2.7915172568998035,-49.674165194880324
54.516/0001-70,J.P. TECNOLOGIA LTDA,Tecnologia,São Geraldo do Araguaia,Pará,208728.8,149981.54,6,-6.40164829950582,-48.539893945343664
16.271/0001-49,A.C. VESTUÁRIO LTDA,Vestuário,Marituba,Pará,519101.94,279447.16,5,-1.3544053282450144,-48.34178179394408
93.551/0001-97,M.S. VESTUÁRIO LTDA,Vestuário,Soure,Pará,542566.12,320760.99,11,-0.7130163293086259,-48.52315214903306
59.923/0001-78,J.P. ALIMENTAÇÃO LTDA,Alimentação,Jacareacanga,Pará,240479.61,218530.09,1,-6.219952085063874,-57.75992940561865
90.239/0001-34,M.S. TECNOLOGIA LTDA,Tecnologia,Capitão Poço,Pará,122063.87,41656.92,13,-1.748166887068716,-47.05916943975551
11.630/0001-26,M.S. SERVIÇOS (MEI) LTDA,Serviços (MEI),São Geraldo do Araguaia,Pará,50361.29,18141.63,10,-6.402545836357273,-48.536032512188314
30.868/0001-90,M.S. SAÚDE LTDA,Saúde,Monte Alegre,Pará,189424.85,110768.95,8,-2.009506660085689,-54.070000742728574
62.114/0001-10,A.C. ALIMENTAÇÃO LTDA,Alimentação,Nova Timboteua,Pará,91968.99,65369.16,4,-1.209391279236079,-47.39173555291489
17.598/0001-86,M.S. SERVIÇOS (MEI) LTDA,Serviços (MEI),Monte Alegre,Pará,16756.46,11453.54,4,-2.0092730933626965,-54.069900153650934
22.209/0001-75,M.S. VESTUÁRIO LTDA,Vestuário,Santa Luzia do Pará,Pará,853968.87,341075.17,12,-1.5138488379411748,-46.910902368972295
58.982/0001-92,M.S. SAÚDE LTDA,Saúde,Santo Antônio do Tauá,Pará,29056.9,22697.13,2,-1.153012603779283,-48.126011922619426
97.419/0001-78,J.P. SAÚDE LTDA,Saúde,Goianésia do Pará,Pará,371846.94,126765.22,14,-3.84733175295468,-49.09591862661327
28.200/0001-14,M.S. LOGÍSTICA LTDA,Logística,Ananindeua,Pará,279292.57,171175.82,12,-1.3674502601789797,-48.37034970085852
80.316/0001-74,A.C. LOGÍSTICA LTDA,Logística,Melgaço,Pará,82981.51,40224.37,6,-1.6602984226694364,-50.714663675697665
85.491/0001-18,J.P. LOGÍSTICA LTDA,Logística,Floresta do Araguaia,Pará,318048.7,273269.48,1,-7.780490172223453,-49.39905536141956
89.919/0001-65,M.S. SAÚDE LTDA,Saúde,Floresta do Araguaia,Pará,227288.44,151435.16,6,-7.778718710147607,-49.39623812011519
54.426/0001-95,M.S. LOGÍSTICA LTDA,Logística,Terra Alta,Pará,1237454.66,444240.76,10,-1.0409997704370786,-47.910352625607544
31.356/0001-27,M.S. LOGÍSTICA LTDA,Logística,Mocajuba,Pará,684719.63,291489.54,9,-2.5817610444917007,-49.50751557070449
26.420/0001-25,J.P. SAÚDE LTDA,Saúde,Bragança,Pará,588318.4,421301.94,5,-1.0522076878883277,-46.76328269816634
30.672/0001-10,J.P. TECNOLOGIA LTDA,Tecnologia,Almeirim,Pará,514717.72,199700.43,10,-1.5200152292847249,-52.58185337387756
38.455/0001-14,J.P. LOGÍSTICA LTDA,Logística,Juruti,Pará,64751.4,57574.01,1,-2.149682517256365,-56.095175665835654
20.434/0001-39,M.S. VESTUÁRIO LTDA,Vestuário,Placas,Pará,676038.72,444427.52,9,-3.8708315753857407,-54.220580620217845
76.816/0001-25,J.P. ALIMENTAÇÃO LTDA,Alimentação,Barcarena,Pará,62937.37,44532.11,6,-1.5078706134449595,-48.627238692155935
68.103/0001-55,M.S. VESTUÁRIO LTDA,Vestuário,Bom Jesus do Tocantins,Pará,666189.94,314811.35,10,-5.017597729850481,-48.60252621326103
89.411/0001-51,J.P. SERVIÇOS (MEI) LTDA,Serviços (MEI),Prainha,Pará,6352.53,2443.54,11,-1.8068060998219377,-53.483608113786914
47.679/0001-32,A.C. SERVIÇOS (MEI) LTDA,Serviços (MEI),Conceição do Araguaia,Pará,29583.51,14266.92,8,-8.255154325590334,-49.26455165176407
17.965/0001-90,M.S. LOGÍSTICA LTDA,Logística,Augusto Corrêa,Pará,740979.21,314421.69,13,-1.0192279312871484,-46.63209466728362
10.257/0001-89,M.S. ALIMENTAÇÃO LTDA,Alimentação,Tucuruí,Pará,914583.14,387248.44,12,-3.7647433486844486,-49.67498208042726
76.867/0001-93,M.S. TECNOLOGIA LTDA,Tecnologia,São Sebastião da Boa Vista,Pará,111457.48,50123.87,8,-1.7204519057297765,-49.53808189511538
12.969/0001-23,M.S. SERVIÇOS (MEI) LTDA,Serviços (MEI),Oriximiná,Pará,25155.04,20260.73,2,-1.766959835700455,-55.866745330416
28.540/0001-24,M.S. LOGÍSTICA LTDA,Logística,Jacareacanga,Pará,1112710.67,337760.47,14,-6.218551699695903,-57.76030878623662
21.621/0001-38,J.P. ALIMENTAÇÃO LTDA,Alimentação,Pacajá,Pará,329511.5,220674.71,4,-3.83505743954123,-50.63442671171842
85.171/0001-46,A.C. LOGÍSTICA LTDA,Logística,Novo Progresso,Pará,388275.22,340828.35,1,-7.015266456770461,-55.38143965123106
73.434/0001-41,M.S. SAÚDE LTDA,Saúde,Aurora do Pará,Pará,94548.76,43100.49,12,-2.1288719383332384,-47.55790833470325
80.340/0001-81,A.C. ALIMENTAÇÃO LTDA,Alimentação,Santa Luzia do Pará,Pará,156565.54,51899.14,14,-1.5171874724330234,-46.91338715046131
27.650/0001-68,M.S. ALIMENTAÇÃO LTDA,Alimentação,Canaã dos Carajás,Pará,417960.9,366921.85,2,-6.494264255315623,-49.87663723208319
41.481/0001-31,J.P. VESTUÁRIO LTDA,Vestuário,Anapu,Pará,175106.29,146802.26,2,-3.4736196839315063,-51.19876792457997
79.238/0001-57,M.S. ALIMENTAÇÃO LTDA,Alimentação,Óbidos,Pará,48405.07,31826.75,4,-1.9144217272142467,-55.520646658669875
37.917/0001-64,A.C. SAÚDE LTDA,Saúde,Primavera,Pará,218151.82,76501.84,11,-0.9426887618088665,-47.097519203176354
57.467/0001-34,J.P. ALIMENTAÇÃO LTDA,Alimentação,Magalhães Barata,Pará,343719.07,144780.69,10,-0.7966754109397909,-47.5932138200203
70.556/0001-45,A.C. SERVIÇOS (MEI) LTDA,Serviços (MEI),Benevides,Pará,67372.57,24184.31,12,-1.3603578688138065,-48.24323950633565
63.211/0001-14,A.C. SAÚDE LTDA,Saúde,Ourém,Pará,356997.75,191801.08,6,-1.5540376405102407,-47.10934309819102
21.184/0001-23,J.P. TECNOLOGIA LTDA,Tecnologia,Aveiro,Pará,201313.9,123689.91,6,-3.610223241511313,-55.33076577458225
98.180/0001-28,J.P. ALIMENTAÇÃO LTDA,Alimentação,Conceição do Araguaia,Pará,37680.79,30688.82,4,-8.256358785385466,-49.26166142315119
63.607/0001-93,A.C. TECNOLOGIA LTDA,Tecnologia,Cachoeira do Piriá,Pará,396896.17,355499.43,2,-1.7591914652478062,-46.542774429714974
20.569/0001-10,A.C. VESTUÁRIO LTDA,Vestuário,Portel,Pará,258468.42,202729.75,4,-1.9382495847310532,-50.8236744151709
91.463/0001-96,J.P. ALIMENTAÇÃO LTDA,Alimentação,Melgaço,Pará,363932.02,245314.27,8,-1.6637841591742701,-50.71762827626178
41.329/0001-46,M.S. TECNOLOGIA LTDA,Tecnologia,Pacajá,Pará,356370.23,237258.27,6,-3.836472480633914,-50.63620045811887
88.947/0001-15,A.C. VESTUÁRIO LTDA,Vestuário,Viseu,Pará,418912.57,164660.98,11,-1.198672800562243,-46.140958744867504
68.440/0001-28,A.C. VESTUÁRIO LTDA,Vestuário,Muaná,Pará,49236.67,37513.21,2,-1.5280673332160235,-49.21380815384579
61.323/0001-34,A.C. SERVIÇOS (MEI) LTDA,Serviços (MEI),Rio Maria,Pará,22573.96,15522.66,5,-7.312535531223559,-50.022039258659994
21.482/0001-10,M.S. VESTUÁRIO LTDA,Vestuário,São Miguel do Guamá,Pará,217687.16,96954.59,9,-1.6275584651511446,-47.48082755245668
37.773/0001-30,M.S. SERVIÇOS (MEI) LTDA,Serviços (MEI),São Geraldo do Araguaia,Pará,29871.4,16458.79,6,-6.4001797118207895,-48.54081677842102
93.598/0001-57,J.P. LOGÍSTICA LTDA,Logística,Conceição do Araguaia,Pará,676611.74,304584.83,8,-8.254913347558709,-49.26612393863411
41.762/0001-27,J.P. TECNOLOGIA LTDA,Tecnologia,Ponta de Pedras,Pará,285646.01,156351.16,13,-1.3864427525309113,-48.83842454941511
72.202/0001-84,A.C. TECNOLOGIA LTDA,Tecnologia,Pacajá,Pará,428454.31,281218.01,3,-3.836441895412835,-50.63497747853544
15.736/0001-62,J.P. SAÚDE LTDA,Saúde,Marapanim,Pará,635507.27,282945.91,9,-0.7178577411052955,-47.63372341163012
85.741/0001-40,A.C. SERVIÇOS (MEI) LTDA,Serviços (MEI),Tailândia,Pará,3177.88,1151.3,14,-2.947320540905594,-48.95535846164176
28.285/0001-35,J.P. ALIMENTAÇÃO LTDA,Alimentação,São Geraldo do Araguaia,Pará,1039082.55,445546.62,11,-6.4013822987935765,-48.53683992079517
17.587/0001-56,M.S. LOGÍSTICA LTDA,Logística,Óbidos,Pará,599708.1,324737.81,5,-1.9183768694847185,-55.52023185382049
35.455/0001-68,J.P. TECNOLOGIA LTDA,Tecnologia,Curionópolis,Pará,493830.26,362096.81,3,-6.1001820959002835,-49.599920756373855
21.390/0001-70,M.S. TECNOLOGIA LTDA,Tecnologia,Mojuí dos Campos,Pará,244669.19,190581.09,2,-2.6848958112756,-54.63928557653039
66.504/0001-33,M.S. VESTUÁRIO LTDA,Vestuário,Belterra,Pará,161757.11,74408.44,7,-3.056402479311704,-54.94431158242553
73.676/0001-34,J.P. ALIMENTAÇÃO LTDA,Alimentação,Altamira,Pará,640742.92,194561.81,14,-3.20509567611736,-52.20756573010352
72.703/0001-27,A.C. SAÚDE LTDA,Saúde,Muaná,Pará,625402.14,364175.88,7,-1.5274039702854074,-49.21472452261767
92.921/0001-98,J.P. SERVIÇOS (MEI) LTDA,Serviços (MEI),Nova Esperança do Piriá,Pará,23207.04,10782.38,8,-2.261115372858868,-46.96782365045077
44.295/0001-60,J.P. SAÚDE LTDA,Saúde,Tracuateua,Pará,641465.54,425710.0,3,-1.0750134386655354,-46.90559538889974
87.708/0001-39,M.S. SAÚDE LTDA,Saúde,Óbidos,Pará,140056.51,73206.11,8,-1.9197780586728972,-55.52019463525132
27.475/0001-65,J.P. SAÚDE LTDA,Saúde,São Caetano de Odivelas,Pará,186480.45,96758.94,9,-0.7499734485276343,-48.01553487402079
72.336/0001-94,A.C. SAÚDE LTDA,Saúde,Canaã dos Carajás,Pará,57461.87,43116.16,2,-6.499439055947161,-49.87438119502439
46.114/0001-32,J.P. ALIMENTAÇÃO LTDA,Alimentação,Baião,Pará,570329.81,215493.62,11,-2.7906612700362334,-49.67687756902092
21.726/0001-54,J.P. SERVIÇOS (MEI) LTDA,Serviços (MEI),Garrafão do Norte,Pará,27755.48,21825.82,2,-2.22385027773106,-47.051608346748665
48.887/0001-40,J.P. VESTUÁRIO LTDA,Vestuário,Santa Luzia do Pará,Pará,895599.08,429792.9,9,-1.513743963222969,-46.909764087225525
17.178/0001-21,A.C. ALIMENTAÇÃO LTDA,Alimentação,Faro,Pará,893534.95,412116.16,10,-2.1728790461403333,-56.74302243294347
13.204/0001-36,J.P. TECNOLOGIA LTDA,Tecnologia,Marapanim,Pará,233634.04,214866.36,1,-0.7157009373696617,-47.63370294624298
15.744/0001-53,M.S. TECNOLOGIA LTDA,Tecnologia,Paragominas,Pará,654813.86,371548.75,5,-2.9948495308472576,-47.35212938895178
73.394/0001-97,M.S. TECNOLOGIA LTDA,Tecnologia,Santarém,Pará,851863.79,404711.18,14,-2.4450457242762407,-54.708967082669496
16.916/0001-45,J.P. ALIMENTAÇÃO LTDA,Alimentação,Sapucaia,Pará,93210.44,86437.72,1,-6.947864177402721,-49.6826784714479
89.718/0001-11,M.S. VESTUÁRIO LTDA,Vestuário,São Geraldo do Araguaia,Pará,401040.29,134946.73,11,-6.4025271760202935,-48.53554363771077
76.586/0001-28,M.S. TECNOLOGIA LTDA,Tecnologia,Jacundá,Pará,533053.44,266726.54,10,-4.450879955895607,-49.11854153706134
41.419/0001-98,J.P. VESTUÁRIO LTDA,Vestuário,Santo Antônio do Tauá,Pará,32621.89,26763.82,3,-1.1497825995035147,-48.12540330998202
28.660/0001-73,M.S. SAÚDE LTDA,Saúde,Terra Santa,Pará,174907.08,98273.31,8,-2.106573500024318,-56.48869028075298
10.873/0001-49,M.S. VESTUÁRIO LTDA,Vestuário,Quatipuru,Pará,46634.01,33227.26,7,-0.8933213374451824,-47.00483368063749
53.804/0001-41,J.P. SERVIÇOS (MEI) LTDA,Serviços (MEI),Sapucaia,Pará,41661.68,20555.22,6,-6.9458270927614265,-49.68128538436327
23.261/0001-10,M.S. SAÚDE LTDA,Saúde,Santa Izabel do Pará,Pará,1106303.08,357526.0,12,-1.2963797809531103,-48.16314442571516
46.695/0001-31,M.S. VESTUÁRIO LTDA,Vestuário,Aurora do Pará,Pará,450677.34,336301.28,5,-2.1281407621345427,-47.5585911104838
18.879/0001-56,A.C. SERVIÇOS (MEI) LTDA,Serviços (MEI),Soure,Pará,8371.09,4195.13,9,-0.714457544076088,-48.5235932388808
37.923/0001-42,J.P. VESTUÁRIO LTDA,Vestuário,Bannach,Pará,506684.85,385908.5,4,-7.344974975943889,-50.51910483649184
25.360/0001-93,A.C. TECNOLOGIA LTDA,Tecnologia,Bujaru,Pará,493642.67,393965.93,3,-1.5160795551176076,-48.04048029055287
87.896/0001-36,A.C. SERVIÇOS (MEI) LTDA,Serviços (MEI),Santo Antônio do Tauá,Pará,32524.05,23952.89,2,-1.149385637048861,-48.13040519231963
42.628/0001-82,A.C. ALIMENTAÇÃO LTDA,Alimentação,Mojuí dos Campos,Pará,483662.36,275653.03,13,-2.6836078584624916,-54.64367678657571
76.186/0001-96,A.C. SERVIÇOS (MEI) LTDA,Serviços (MEI),Brasil Novo,Pará,51976.43,20033.01,11,-3.261109681522229,-52.516773827959504
16.876/0001-69,A.C. VESTUÁRIO LTDA,Vestuário,Garrafão do Norte,Pará,39327.74,28672.67,6,-2.223515939389257,-47.04989490155141
30.822/0001-38,A.C. LOGÍSTICA LTDA,Logística,Soure,Pará,163756.98,117642.98,4,-0.7152368222699574,-48.522629448110834
98.545/0001-54,J.P. VESTUÁRIO LTDA,Vestuário,Cachoeira do Piriá,Pará,194252.85,114087.5,7,-1.7569515842370191,-46.54030601092386
13.328/0001-39,M.S. TECNOLOGIA LTDA,Tecnologia,Barcarena,Pará,105589.95,48363.18,12,-1.5068206523883598,-48.62510584477605
80.907/0001-86,J.P. TECNOLOGIA LTDA,Tecnologia,Melgaço,Pará,448404.98,160389.64,13,-1.6617487272544558,-50.71309484374217
88.901/0001-81,M.S. LOGÍSTICA LTDA,Logística,Capitão Poço,Pará,73108.68,38877.65,8,-1.7484525471184709,-47.0615381463694
75.213/0001-86,J.P. SAÚDE LTDA,Saúde,Pau D'Arco,Pará,463858.22,285871.0,6,-7.531897057083238,-50.05028537771311
43.183/0001-89,A.C. SAÚDE LTDA,Saúde,Garrafão do Norte,Pará,458918.61,339162.4,2,-2.2231882855284413,-47.05145609755745
70.606/0001-25,M.S. LOGÍSTICA LTDA,Logística,São Félix do Xingu,Pará,127086.08,96500.82,3,-6.643669240746015,-51.99069515844729
28.376/0001-43,M.S. SERVIÇOS (MEI) LTDA,Serviços (MEI),Monte Alegre,Pará,19969.83,12395.1,9,-2.007001137583967,-54.06993505407265
79.957/0001-95,A.C. SERVIÇOS (MEI) LTDA,Serviços (MEI),Nova Ipixuna,Pará,56467.95,22480.06,13,-4.910583251395015,-49.31178749568319
55.407/0001-82,A.C. ALIMENTAÇÃO LTDA,Alimentação,Oriximiná,Pará,274680.64,204263.07,2,-1.7666305969818412,-55.868182640714
48.837/0001-92,A.C. SERVIÇOS (MEI) LTDA,Serviços (MEI),Pacajá,Pará,16154.44,6226.99,13,-3.839528945695689,-50.63471643691797
92.695/0001-87,J.P. VESTUÁRIO LTDA,Vestuário,Rondon do Pará,Pará,168483.34,148441.54,1,-4.776756233940798,-48.06424371419361
25.752/0001-70,J.P. VESTUÁRIO LTDA,Vestuário,Igarapé-Miri,Pará,352495.1,211546.59,5,-1.9766441290850694,-48.96186702371078
81.198/0001-59,M.S. SERVIÇOS (MEI) LTDA,Serviços (MEI),Juruti,Pará,29228.5,22723.17,4,-2.150849688965368,-56.09327095127457
28.712/0001-12,M.S. VESTUÁRIO LTDA,Vestuário,Viseu,Pará,241979.23,165551.32,3,-1.1944140483052839,-46.142540594757776
25.233/0001-54,J.P. ALIMENTAÇÃO LTDA,Alimentação,Gurupá,Pará,465176.19,255902.69,11,-1.4056121315301418,-51.64639463427861
44.904/0001-19,M.S. TECNOLOGIA LTDA,Tecnologia,Abel Figueiredo,Pará,628365.58,345492.98,5,-4.9540832341301915,-48.395001731487106
50.634/0001-87,M.S. SAÚDE LTDA,Saúde,Belém,Pará,171158.28,99582.79,5,-1.4565606907463755,-48.50305985818067
13.845/0001-59,A.C. ALIMENTAÇÃO LTDA,Alimentação,Bragança,Pará,99622.79,65411.9,3,-1.0537386554005614,-46.76618936602738
95.975/0001-22,J.P. ALIMENTAÇÃO LTDA,Alimentação,Curionópolis,Pará,463713.91,404156.0,1,-6.09902306329507,-49.59749624066989
42.675/0001-24,A.C. TECNOLOGIA LTDA,Tecnologia,Terra Alta,Pará,251335.23,131501.68,8,-1.0356381762009117,-47.915697203998064
47.925/0001-71,J.P. LOGÍSTICA LTDA,Logística,Prainha,Pará,145165.57,70063.36,11,-1.80851343270429,-53.48237747524688
91.197/0001-11,A.C. TECNOLOGIA LTDA,Tecnologia,Acará,Pará,328793.24,134179.85,9,-1.9586205281587992,-48.19584301995504
31.933/0001-58,M.S. ALIMENTAÇÃO LTDA,Alimentação,Parauapebas,Pará,268813.11,154164.75,11,-6.066335292748242,-49.90052077612583
24.527/0001-64,J.P. SERVIÇOS (MEI) LTDA,Serviços (MEI),Terra Alta,Pará,21732.71,16692.33,4,-1.0356518372953396,-47.91048978605842
17.733/0001-50,A.C. LOGÍSTICA LTDA,Logística,Rio Maria,Pará,1186448.79,406374.98,12,-7.314229668232654,-50.02107189600488
70.532/0001-80,J.P. TECNOLOGIA LTDA,Tecnologia,São Domingos do Araguaia,Pará,548878.24,424585.6,2,-5.5375436449556155,-48.72999001118287
75.733/0001-12,J.P. VESTUÁRIO LTDA,Vestuário,Medicilândia,Pará,266342.8,103657.99,9,-3.443904408117552,-52.886869603864454
91.516/0001-69,J.P. SERVIÇOS (MEI) LTDA,Serviços (MEI),Parauapebas,Pará,33762.55,14935.22,12,-6.06796590032138,-49.90238682062612
11.446/0001-49,A.C. LOGÍSTICA LTDA,Logística,Aurora do Pará,Pará,612558.65,208867.07,13,-2.1245131169295193,-47.55697218261774
44.757/0001-80,A.C. SAÚDE LTDA,Saúde,Ananindeua,Pará,358616.67,138653.33,14,-1.3665143428782134,-48.36945906986901
24.936/0001-11,A.C. SAÚDE LTDA,Saúde,Itupiranga,Pará,375067.63,313599.04,2,-5.133755159457195,-49.32687442092102
89.776/0001-57,A.C. ALIMENTAÇÃO LTDA,Alimentação,Bannach,Pará,676532.29,365219.72,9,-7.348012952918807,-50.514560239574955
53.655/0001-13,M.S. TECNOLOGIA LTDA,Tecnologia,São Domingos do Araguaia,Pará,556766.53,267411.06,9,-5.540958504729082,-48.73159378714751
49.349/0001-91,A.C. ALIMENTAÇÃO LTDA,Alimentação,Floresta do Araguaia,Pará,628901.41,280124.35,10,-7.779995560234603,-49.39707378968075
26.836/0001-31,A.C. SERVIÇOS (MEI) LTDA,Serviços (MEI),Oriximiná,Pará,34417.53,20371.46,12,-1.7687267993150846,-55.863303415979516
36.850/0001-64,M.S. TECNOLOGIA LTDA,Tecnologia,Soure,Pará,916322.15,367619.85,11,-0.7136346647892643,-48.52274968609871
26.640/0001-78,J.P. ALIMENTAÇÃO LTDA,Alimentação,Tucumã,Pará,463711.31,192341.43,12,-6.746233062102465,-50.053870546796084
34.516/0001-28,M.S. LOGÍSTICA LTDA,Logística,Eldorado do Carajás,Pará,565330.67,234958.8,9,-6.103023324675763,-49.356396324932206
61.222/0001-24,J.P. SAÚDE LTDA,Saúde,Brejo Grande do Araguaia,Pará,290993.73,152224.73,14,-5.6994960824707785,-48.51685364316035
29.811/0001-88,A.C. TECNOLOGIA LTDA,Tecnologia,Floresta do Araguaia,Pará,737686.79,443314.69,9,-7.783991012219926,-49.39653443559371
16.337/0001-68,M.S. LOGÍSTICA LTDA,Logística,Colares,Pará,280899.77,176894.04,7,-0.9293334589332802,-48.285222911707
20.285/0001-35,A.C. SAÚDE LTDA,Saúde,Abel Figueiredo,Pará,761108.25,348114.63,13,-4.9501306416284505,-48.394716496826
68.561/0001-94,A.C. VESTUÁRIO LTDA,Vestuário,Conceição do Araguaia,Pará,214130.88,149264.31,4,-8.257383197260541,-49.26664735860348
56.720/0001-39,J.P. VESTUÁRIO LTDA,Vestuário,Floresta do Araguaia,Pará,1104727.82,432679.69,9,-7.781961067211867,-49.39401212772464
85.442/0001-90,M.S. TECNOLOGIA LTDA,Tecnologia,Tucuruí,Pará,273486.82,197888.84,6,-3.7633674367825036,-49.67043002958138
22.169/0001-68,A.C. VESTUÁRIO LTDA,Vestuário,Óbidos,Pará,88702.09,52404.01,6,-1.9150654047249547,-55.51656363280134
84.768/0001-83,M.S. ALIMENTAÇÃO LTDA,Alimentação,Igarapé-Açu,Pará,146928.12,79163.42,5,-1.1296997148125338,-47.622608853077054
33.278/0001-27,A.C. ALIMENTAÇÃO LTDA,Alimentação,Brejo Grande do Araguaia,Pará,1052572.67,445533.19,10,-5.699798189002678,-48.514735853782405
87.986/0001-22,J.P. SAÚDE LTDA,Saúde,Bagre,Pará,409429.55,349026.6,1,-1.8987703207308007,-50.16278652999782
88.924/0001-15,A.C. LOGÍSTICA LTDA,Logística,Goianésia do Pará,Pará,706842.07,273317.28,10,-3.845148421369855,-49.09883059171572
50.904/0001-50,A.C. SAÚDE LTDA,Saúde,Palestina do Pará,Pará,100753.11,61665.3,10,-5.742491538361439,-48.31916524674266
28.300/0001-96,J.P. TECNOLOGIA LTDA,Tecnologia,Baião,Pará,469385.99,307488.66,7,-2.7939076769181677,-49.6764662386119
86.139/0001-87,J.P. TECNOLOGIA LTDA,Tecnologia,Ulianópolis,Pará,182455.04,91155.54,12,-3.743933112843704,-47.32912774056846
54.253/0001-93,A.C. LOGÍSTICA LTDA,Logística,Trairão,Pará,105965.69,65302.07,4,-4.573230006698394,-55.94062715603714
65.172/0001-63,M.S. SAÚDE LTDA,Saúde,Novo Repartimento,Pará,388358.42,211966.15,7,-4.248667066162116,-49.94298339277071
80.117/0001-11,A.C. TECNOLOGIA LTDA,Tecnologia,Santa Izabel do Pará,Pará,334854.12,217183.51,4,-1.2993730713871423,-48.15918563493032
44.684/0001-15,M.S. ALIMENTAÇÃO LTDA,Alimentação,Santa Bárbara do Pará,Pará,319040.29,154380.57,9,-1.227088214348333,-48.29099716003791
32.421/0001-56,A.C. ALIMENTAÇÃO LTDA,Alimentação,São Domingos do Capim,Pará,258558.42,240887.85,1,-1.6751242452120287,-47.770567920715564
39.953/0001-38,A.C. TECNOLOGIA LTDA,Tecnologia,Prainha,Pará,794700.18,434151.68,6,-1.8068263462579692,-53.48154193955296
12.122/0001-94,A.C. VESTUÁRIO LTDA,Vestuário,Uruará,Pará,375266.25,289450.48,2,-3.720016835128283,-53.737429752717105
61.979/0001-17,J.P. LOGÍSTICA LTDA,Logística,Óbidos,Pará,65274.6,32908.53,10,-1.9141846823798252,-55.51650750110725
18.222/0001-54,A.C. LOGÍSTICA LTDA,Logística,Magalhães Barata,Pará,291695.23,116973.0,10,-0.7974627280080019,-47.5989270141204
98.212/0001-40,M.S. SERVIÇOS (MEI) LTDA,Serviços (MEI),São João de Pirabas,Pará,13415.76,12276.01,1,-0.7733661078661076,-47.17113551336148
78.847/0001-75,A.C. LOGÍSTICA LTDA,Logística,Bujaru,Pará,728670.21,252659.36,11,-1.5128164663747223,-48.042699917410154
34.728/0001-95,A.C. TECNOLOGIA LTDA,Tecnologia,Novo Repartimento,Pará,353560.42,121502.8,14,-4.249093810419048,-49.94182529797419
19.643/0001-27,J.P. LOGÍSTICA LTDA,Logística,Primavera,Pará,367752.11,188117.27,10,-0.9407568372804941,-47.09940739179628
78.234/0001-66,J.P. LOGÍSTICA LTDA,Logística,Senador José Porfírio,Pará,913960.1,442577.28,7,-2.5853541149483177,-51.94966560331158
69.729/0001-95,M.S. ALIMENTAÇÃO LTDA,Alimentação,Marituba,Pará,278181.01,251472.73,2,-1.3572759185495924,-48.341470249386056
71.345/0001-76,J.P. SAÚDE LTDA,Saúde,Brejo Grande do Araguaia,Pará,92860.75,56891.76,11,-5.696965173871753,-48.51446140940175
97.786/0001-62,A.C. SERVIÇOS (MEI) LTDA,Serviços (MEI),Magalhães Barata,Pará,37822.36,20713.73,5,-0.7975764571266173,-47.59841714776526
98.674/0001-62,J.P. ALIMENTAÇÃO LTDA,Alimentação,Ipixuna do Pará,Pará,381149.11,234023.54,8,-2.560102574558728,-47.49865654764527
96.367/0001-59,A.C. LOGÍSTICA LTDA,Logística,Bujaru,Pará,366324.48,237945.72,3,-1.5173211608049844,-48.040548746116905
96.330/0001-42,A.C. LOGÍSTICA LTDA,Logística,Capitão Poço,Pará,442923.32,358208.69,2,-1.744015918301379,-47.05823238427968
13.658/0001-94,M.S. SAÚDE LTDA,Saúde,Curralinho,Pará,410132.81,191468.66,14,-1.812369250591483,-49.7962621205501
11.522/0001-12,M.S. SERVIÇOS (MEI) LTDA,Serviços (MEI),Porto de Moz,Pará,32764.45,16120.9,6,-1.7507975637038882,-52.23509479183659
80.530/0001-71,J.P. ALIMENTAÇÃO LTDA,Alimentação,Chaves,Pará,168430.92,99192.75,9,0.15382540616181026,-49.91149773891062
32.905/0001-90,A.C. SERVIÇOS (MEI) LTDA,Serviços (MEI),Uruará,Pará,19532.5,15818.66,2,-3.7178185424517136,-53.736597368849225
27.185/0001-86,J.P. LOGÍSTICA LTDA,Logística,Itaituba,Pará,284954.07,259072.63,1,-4.275838673449954,-55.98553546897725
12.841/0001-81,A.C. SERVIÇOS (MEI) LTDA,Serviços (MEI),Pacajá,Pará,16815.38,9879.03,6,-3.839947838146243,-50.636471397154764
28.749/0001-16,A.C. TECNOLOGIA LTDA,Tecnologia,Floresta do Araguaia,Pará,329549.35,308931.44,1,-7.781176983809845,-49.39539677380814
74.604/0001-81,J.P. LOGÍSTICA LTDA,Logística,Santa Luzia do Pará,Pará,48683.63,42436.47,1,-1.5173223612731617,-46.91325515476589
22.853/0001-60,A.C. VESTUÁRIO LTDA,Vestuário,Tucuruí,Pará,362184.84,177119.35,11,-3.762536760561338,-49.674670812488976
28.721/0001-79,M.S. SAÚDE LTDA,Saúde,Paragominas,Pará,176945.84,125152.23,3,-2.9967811175153165,-47.35149190719139
60.740/0001-79,M.S. VESTUÁRIO LTDA,Vestuário,Altamira,Pará,270920.28,146373.74,5,-3.2013940887216337,-52.20376927014115
58.714/0001-33,A.C. ALIMENTAÇÃO LTDA,Alimentação,Jacundá,Pará,542402.37,329371.21,5,-4.453947139724862,-49.11514136108321
34.600/0001-51,M.S. TECNOLOGIA LTDA,Tecnologia,Ourilândia do Norte,Pará,304178.8,209649.22,9,-6.751310800725131,-51.09379998419944
60.212/0001-49,A.C. SAÚDE LTDA,Saúde,Pau D'Arco,Pará,72026.38,56267.78,5,-7.52821381615711,-50.05320198301606
43.443/0001-67,M.S. VESTUÁRIO LTDA,Vestuário,São João da Ponta,Pará,772209.96,397615.0,9,-0.849120881306601,-47.918372161283806
74.733/0001-23,J.P. TECNOLOGIA LTDA,Tecnologia,Tracuateua,Pará,411215.73,141500.69,12,-1.0736637257372612,-46.907437490911505
53.456/0001-40,M.S. TECNOLOGIA LTDA,Tecnologia,Medicilândia,Pará,109668.42,61340.94,5,-3.4469269080431895,-52.88389947806837
10.432/0001-38,J.P. TECNOLOGIA LTDA,Tecnologia,Afuá,Pará,392252.68,227861.02,5,-0.15501392914525677,-50.38427754959496
67.467/0001-69,M.S. TECNOLOGIA LTDA,Tecnologia,Tucumã,Pará,830403.43,393868.14,7,-6.747497532991802,-50.05209020851436
34.776/0001-43,J.P. LOGÍSTICA LTDA,Logística,Brasil Novo,Pará,479381.17,178336.84,14,-3.2589814384065847,-52.51718384808702
57.470/0001-50,A.C. SERVIÇOS (MEI) LTDA,Serviços (MEI),Igarapé-Açu,Pará,15924.25,8570.17,8,-1.1244662426419054,-47.62048205663182
16.694/0001-41,M.S. TECNOLOGIA LTDA,Tecnologia,Pacajá,Pará,106829.8,78525.08,4,-3.837963353600816,-50.63748828533542
52.902/0001-96,J.P. TECNOLOGIA LTDA,Tecnologia,Santo Antônio do Tauá,Pará,347040.4,113500.99,13,-1.1516937282789532,-48.13026391731055
86.876/0001-54,J.P. ALIMENTAÇÃO LTDA,Alimentação,Oeiras do Pará,Pará,59999.88,56626.8,1,-2.0051608545648727,-49.8550187443617
44.466/0001-22,M.S. LOGÍSTICA LTDA,Logística,Mãe do Rio,Pará,385607.6,353856.07,1,-2.052889939667586,-47.553237671505066
41.760/0001-54,J.P. SAÚDE LTDA,Saúde,Itaituba,Pará,490360.61,173394.12,13,-4.277720396333172,-55.98405725332163
96.979/0001-12,A.C. LOGÍSTICA LTDA,Logística,Melgaço,Pará,502667.05,396007.04,2,-1.6629252373008916,-50.71692229565128
45.748/0001-35,J.P. LOGÍSTICA LTDA,Logística,Curuá,Pará,26937.86,25422.54,1,-1.9043731562545794,-54.11707684840854
66.692/0001-50,J.P. SAÚDE LTDA,Saúde,Água Azul do Norte,Pará,375144.67,189715.75,7,-6.779398143090171,-50.482812537720264
48.712/0001-43,M.S. VESTUÁRIO LTDA,Vestuário,Terra Santa,Pará,378244.87,325720.11,1,-2.1031896942892225,-56.487262763614304
35.752/0001-72,M.S. VESTUÁRIO LTDA,Vestuário,Brasil Novo,Pará,649743.87,263818.59,10,-3.2620034848331847,-52.51860192853164
45.831/0001-97,J.P. ALIMENTAÇÃO LTDA,Alimentação,Conceição do Araguaia,Pará,421459.74,347776.27,3,-8.25967076158749,-49.26465937877622
35.813/0001-50,A.C. VESTUÁRIO LTDA,Vestuário,Jacundá,Pará,583629.78,365939.16,9,-4.450564536462321,-49.11689119894886
34.761/0001-10,J.P. SERVIÇOS (MEI) LTDA,Serviços (MEI),Ulianópolis,Pará,55976.91,22376.4,14,-3.740536593926726,-47.3291415096999
69.688/0001-35,J.P. TECNOLOGIA LTDA,Tecnologia,Aurora do Pará,Pará,191708.1,175784.3,1,-2.123474529868115,-47.555321414412056
83.320/0001-84,J.P. SERVIÇOS (MEI) LTDA,Serviços (MEI),São Domingos do Araguaia,Pará,32013.07,24324.04,2,-5.538383780953223,-48.72999902944264
36.709/0001-59,J.P. SAÚDE LTDA,Saúde,Igarapé-Miri,Pará,608884.14,254122.05,9,-1.9745721750601009,-48.96117733307889
81.352/0001-83,A.C. LOGÍSTICA LTDA,Logística,Jacundá,Pará,1000376.59,393017.09,13,-4.45256895529344,-49.11501711682335
27.489/0001-24,M.S. SAÚDE LTDA,Saúde,São Caetano de Odivelas,Pará,461829.53,382637.54,2,-0.7496931178791442,-48.014080252462534
20.767/0001-73,M.S. TECNOLOGIA LTDA,Tecnologia,Marabá,Pará,35271.63,20230.27,10,-5.3639267444936385,-49.125863181571624
38.332/0001-43,J.P. TECNOLOGIA LTDA,Tecnologia,Magalhães Barata,Pará,761934.23,244465.38,14,-0.7950842894307965,-47.59455256739998
56.427/0001-36,M.S. ALIMENTAÇÃO LTDA,Alimentação,Tracuateua,Pará,408747.83,256296.56,6,-1.0774100236197437,-46.90363210014934
49.627/0001-87,M.S. SAÚDE LTDA,Saúde,Chaves,Pará,234496.56,194644.04,2,0.15821833363239537,-49.91151819588365
58.616/0001-28,A.C. TECNOLOGIA LTDA,Tecnologia,Limoeiro do Ajuru,Pará,626875.82,382340.63,4,-1.896277339701828,-49.383871125317555
91.665/0001-93,J.P. SERVIÇOS (MEI) LTDA,Serviços (MEI),Óbidos,Pará,8357.05,7156.71,2,-1.9169535710087668,-55.520708267139064
59.682/0001-90,A.C. TECNOLOGIA LTDA,Tecnologia,Jacareacanga,Pará,347933.64,173138.05,12,-6.220789973335387,-57.76236548762207
77.806/0001-16,J.P. VESTUÁRIO LTDA,Vestuário,Sapucaia,Pará,436402.42,248525.26,10,-6.947547706031254,-49.67983509936118
80.435/0001-45,A.C. LOGÍSTICA LTDA,Logística,Altamira,Pará,589036.62,380603.93,5,-3.2034496606318545,-52.20720248186895
40.665/0001-51,A.C. SERVIÇOS (MEI) LTDA,Serviços (MEI),Bannach,Pará,21733.68,17633.4,3,-7.344384747900005,-50.51863387523557
25.448/0001-60,J.P. LOGÍSTICA LTDA,Logística,Breu Branco,Pará,363030.05,116272.92,13,-3.7530521409302566,-49.563927400236565
74.805/0001-40,J.P. VESTUÁRIO LTDA,Vestuário,Limoeiro do Ajuru,Pará,979543.76,326381.11,13,-1.8956773763975865,-49.37936386196613
92.531/0001-17,A.C. LOGÍSTICA LTDA,Logística,Magalhães Barata,Pará,225481.95,189928.1,2,-0.7971264875551481,-47.59458684647528
95.513/0001-20,M.S. LOGÍSTICA LTDA,Logística,Limoeiro do Ajuru,Pará,1096687.78,449298.77,13,-1.8947817503999091,-49.38392157014908
46.282/0001-95,M.S. TECNOLOGIA LTDA,Tecnologia,Melgaço,Pará,283213.38,116075.28,9,-1.6628209086155643,-50.714513306121276
49.273/0001-51,J.P. SERVIÇOS (MEI) LTDA,Serviços (MEI),Vitória do Xingu,Pará,12238.4,10157.5,4,-2.8803768125125147,-52.00375989118226
40.168/0001-49,A.C. ALIMENTAÇÃO LTDA,Alimentação,Redenção,Pará,304012.11,118277.29,11,-8.027627705867806,-50.03352263159918
16.367/0001-66,M.S. LOGÍSTICA LTDA,Logística,São Miguel do Guamá,Pará,590731.61,234358.49,10,-1.6265652897990077,-47.48070328475269
60.440/0001-48,M.S. SAÚDE LTDA,Saúde,Bonito,Pará,46007.39,21793.86,8,-1.3640516756936587,-47.30776331722404
70.614/0001-26,M.S. SERVIÇOS (MEI) LTDA,Serviços (MEI),Oriximiná,Pará,2058.4,1735.42,2,-1.7685061863168898,-55.8639656736567
36.943/0001-10,J.P. VESTUÁRIO LTDA,Vestuário,Alenquer,Pará,151895.36,89948.16,4,-1.9499880726052397,-54.73851619806952
92.443/0001-42,A.C. TECNOLOGIA LTDA,Tecnologia,Ourilândia do Norte,Pará,647783.96,391581.11,5,-6.75515459593581,-51.089341040264955
15.873/0001-56,M.S. LOGÍSTICA LTDA,Logística,São Miguel do Guamá,Pará,81267.56,72114.6,1,-1.628794781045028,-47.48473784313085
81.452/0001-69,M.S. LOGÍSTICA LTDA,Logística,Ipixuna do Pará,Pará,422807.23,383303.57,1,-2.562117860880617,-47.49579469554065
47.632/0001-29,A.C. ALIMENTAÇÃO LTDA,Alimentação,Senador José Porfírio,Pará,242558.03,190599.86,2,-2.5880904709976327,-51.94775417830812
54.775/0001-98,J.P. LOGÍSTICA LTDA,Logística,Colares,Pará,579923.34,352550.88,8,-0.9282978215954426,-48.28338628696741
44.743/0001-17,A.C. ALIMENTAÇÃO LTDA,Alimentação,Curuçá,Pará,181985.41,150789.52,3,-0.731322337673799,-47.84820261872475
67.443/0001-56,M.S. SERVIÇOS (MEI) LTDA,Serviços (MEI),Curralinho,Pará,57984.16,21923.93,14,-1.8150976722444319,-49.79125329853738
18.648/0001-89,J.P. ALIMENTAÇÃO LTDA,Alimentação,Primavera,Pará,587736.72,412312.18,3,-0.9386959395403228,-47.10042411929862
95.232/0001-45,J.P. VESTUÁRIO LTDA,Vestuário,Tracuateua,Pará,432830.64,348020.93,2,-1.0782799638230796,-46.90566426313723
31.503/0001-71,A.C. SAÚDE LTDA,Saúde,Santa Izabel do Pará,Pará,45994.08,25855.26,6,-1.2961675685058156,-48.1622733913917
82.513/0001-27,M.S. TECNOLOGIA LTDA,Tecnologia,Paragominas,Pará,284232.99,215678.55,2,-2.9984951345189916,-47.352108885928786
46.706/0001-86,M.S. ALIMENTAÇÃO LTDA,Alimentação,Oriximiná,Pará,377236.5,266268.64,5,-1.7685793757512438,-55.86797805388287
28.392/0001-80,M.S. TECNOLOGIA LTDA,Tecnologia,Acará,Pará,338338.59,280623.34,3,-1.9598750509538905,-48.19992663999914
10.980/0001-19,J.P. VESTUÁRIO LTDA,Vestuário,Bagre,Pará,190588.05,73280.16,11,-1.902320573527802,-50.16509665454706
89.493/0001-53,M.S. VESTUÁRIO LTDA,Vestuário,Salinópolis,Pará,554586.6,428331.27,3,-0.6104830829321343,-47.35558399565703
27.388/0001-94,M.S. LOGÍSTICA LTDA,Logística,Quatipuru,Pará,283870.16,146299.26,13,-0.8943555935158602,-47.00006485609113
31.406/0001-91,J.P. VESTUÁRIO LTDA,Vestuário,Aurora do Pará,Pará,219644.15,110263.4,7,-2.1236382336392796,-47.55761398209618
68.590/0001-21,A.C. SERVIÇOS (MEI) LTDA,Serviços (MEI),Concórdia do Pará,Pará,16044.27,9037.66,7,-1.9912402280534012,-47.95289546144752
29.248/0001-42,A.C. ALIMENTAÇÃO LTDA,Alimentação,São Miguel do Guamá,Pará,351852.63,264772.83,2,-1.6267340186413426,-47.48349299581918
67.520/0001-92,A.C. SERVIÇOS (MEI) LTDA,Serviços (MEI),Viseu,Pará,28540.69,14042.91,7,-1.1955020571895858,-46.14177659898879
44.743/0001-94,A.C. TECNOLOGIA LTDA,Tecnologia,Almeirim,Pará,375946.74,138628.24,12,-1.5227459445454679,-52.57998958120053
34.683/0001-75,M.S. SAÚDE LTDA,Saúde,Aveiro,Pará,815134.15,336851.55,12,-3.6065995034346554,-55.32988346200304
30.679/0001-90,M.S. ALIMENTAÇÃO LTDA,Alimentação,Moju,Pará,323708.92,146334.67,7,-1.885224429862814,-48.77057045383852
53.625/0001-36,M.S. SAÚDE LTDA,Saúde,Bragança,Pará,326885.97,272107.98,3,-1.0556597273468622,-46.766338097391376
78.712/0001-39,J.P. TECNOLOGIA LTDA,Tecnologia,Magalhães Barata,Pará,468132.68,443721.71,1,-0.7955528052155956,-47.5972101356703
51.404/0001-72,A.C. SERVIÇOS (MEI) LTDA,Serviços (MEI),Óbidos,Pará,27573.24,13229.96,14,-1.9192222717598237,-55.517119220095964
25.717/0001-52,A.C. SERVIÇOS (MEI) LTDA,Serviços (MEI),Brejo Grande do Araguaia,Pará,18578.18,15028.38,3,-5.699671228567447,-48.51537423963037
68.322/0001-69,A.C. ALIMENTAÇÃO LTDA,Alimentação,Acará,Pará,704759.1,425588.89,5,-1.9618979593995922,-48.19743996382968
35.467/0001-51,M.S. TECNOLOGIA LTDA,Tecnologia,Santarém Novo,Pará,65427.71,31423.1,7,-0.9266584942436777,-47.395150738908676
44.848/0001-68,M.S. LOGÍSTICA LTDA,Logística,Ourém,Pará,249106.76,90003.5,11,-1.553066380707138,-47.10867683982993
64.644/0001-79,A.C. SERVIÇOS (MEI) LTDA,Serviços (MEI),Inhangapi,Pará,26557.74,17363.95,3,-1.4288300554300886,-47.918425597548875
53.514/0001-64,M.S. VESTUÁRIO LTDA,Vestuário,Santo Antônio do Tauá,Pará,588681.4,273635.6,7,-1.1547202893576158,-48.125250621823625
83.293/0001-96,A.C. SERVIÇOS (MEI) LTDA,Serviços (MEI),Trairão,Pará,30174.18,17730.11,7,-4.573324788330255,-55.93821328375524
33.646/0001-17,J.P. LOGÍSTICA LTDA,Logística,Bagre,Pará,317486.2,160641.17,12,-1.8998327831719093,-50.16488585803844
28.392/0001-31,M.S. SAÚDE LTDA,Saúde,Marapanim,Pará,280843.86,201500.94,3,-0.7209588209419717,-47.631733834393145
80.290/0001-37,J.P. SERVIÇOS (MEI) LTDA,Serviços (MEI),Faro,Pará,33791.57,18713.73,7,-2.1715047629979605,-56.74741072446323
25.264/0001-23,A.C. SAÚDE LTDA,Saúde,Belém,Pará,731606.37,398534.85,6,-1.454109881507021,-48.50193087926033
88.832/0001-81,J.P. LOGÍSTICA LTDA,Logística,Portel,Pará,286625.0,143414.86,10,-1.93523761401986,-50.821107152655664
16.950/0001-74,M.S. SAÚDE LTDA,Saúde,Marabá,Pará,238323.3,128755.06,10,-5.363705326939294,-49.124044198039044
71.347/0001-31,M.S. LOGÍSTICA LTDA,Logística,Dom Eliseu,Pará,1004640.11,373061.25,12,-4.28711834370074,-47.50370808374391
28.381/0001-85,A.C. VESTUÁRIO LTDA,Vestuário,Curuçá,Pará,45226.38,31789.3,4,-0.7301462728222687,-47.84934863819091
81.735/0001-30,M.S. LOGÍSTICA LTDA,Logística,São João de Pirabas,Pará,77522.73,60918.74,2,-0.7683269055528714,-47.169816485716126
53.571/0001-86,A.C. SERVIÇOS (MEI) LTDA,Serviços (MEI),Tailândia,Pará,22205.9,9657.26,13,-2.9462370090876355,-48.95272073602294
48.621/0001-97,A.C. LOGÍSTICA LTDA,Logística,Curuçá,Pará,916913.96,362004.5,10,-0.7290586388714678,-47.85117931483983
72.395/0001-59,M.S. VESTUÁRIO LTDA,Vestuário,Baião,Pará,600376.23,303346.69,8,-2.7952803151057215,-49.67392745461987
66.452/0001-66,A.C. ALIMENTAÇÃO LTDA,Alimentação,Santo Antônio do Tauá,Pará,352857.91,116727.92,13,-1.1519528540787451,-48.125064672267754
40.295/0001-89,M.S. SAÚDE LTDA,Saúde,Pacajá,Pará,142723.71,50811.23,13,-3.839891367493272,-50.636191560176776
21.981/0001-55,J.P. VESTUÁRIO LTDA,Vestuário,Curuá,Pará,1176956.53,437341.87,14,-1.905417957623529,-54.113190104799884
44.185/0001-59,A.C. SERVIÇOS (MEI) LTDA,Serviços (MEI),São Félix do Xingu,Pará,28091.28,16685.13,13,-6.644401195537636,-51.992639395258955
43.335/0001-62,M.S. ALIMENTAÇÃO LTDA,Alimentação,Santa Maria das Barreiras,Pará,430429.28,366172.92,2,-8.869595971144577,-49.70857613707182
82.275/0001-19,M.S. SAÚDE LTDA,Saúde,Quatipuru,Pará,273482.77,201773.13,3,-0.8949984200019815,-47.004344858314354
19.283/0001-71,M.S. ALIMENTAÇÃO LTDA,Alimentação,Maracanã,Pará,218035.92,90147.82,14,-0.7667451666224288,-47.45289118465033
33.391/0001-98,J.P. ALIMENTAÇÃO LTDA,Alimentação,Jacareacanga,Pará,880911.02,383680.25,13,-6.220960542578467,-57.75937837031272
82.273/0001-87,J.P. SAÚDE LTDA,Saúde,Nova Timboteua,Pará,512826.7,246818.77,9,-1.2074643764399735,-47.393254896443615
31.507/0001-14,A.C. SAÚDE LTDA,Saúde,Terra Alta,Pará,241472.9,216429.79,1,-1.0375733674816678,-47.91147908598311
33.381/0001-49,A.C. LOGÍSTICA LTDA,Logística,Jacareacanga,Pará,434543.67,399930.11,1,-6.2217381459239585,-57.76175139006737
68.488/0001-62,A.C. VESTUÁRIO LTDA,Vestuário,Concórdia do Pará,Pará,656809.77,338358.75,7,-1.9946465735315269,-47.95365728448674
42.988/0001-59,M.S. SAÚDE LTDA,Saúde,Igarapé-Miri,Pará,261981.17,186292.1,3,-1.9785351997285285,-48.95835708943854
29.430/0001-49,J.P. ALIMENTAÇÃO LTDA,Alimentação,Capitão Poço,Pará,734719.79,433216.22,6,-1.7447494377526778,-47.05743420300877
43.443/0001-73,A.C. VESTUÁRIO LTDA,Vestuário,Prainha,Pará,716985.78,370974.73,10,-1.8078888127928718,-53.481830528033434
82.110/0001-43,J.P. TECNOLOGIA LTDA,Tecnologia,Cametá,Pará,227772.28,203569.4,1,-2.2449972846328854,-49.493344808866844
22.777/0001-68,M.S. ALIMENTAÇÃO LTDA,Alimentação,Curionópolis,Pará,276417.89,115078.11,9,-6.101646348133619,-49.59994800039961
14.825/0001-40,M.S. LOGÍSTICA LTDA,Logística,Anajás,Pará,334805.32,224240.76,4,-0.9858823593644003,-49.937001654416335
30.491/0001-78,A.C. LOGÍSTICA LTDA,Logística,Altamira,Pará,333209.0,166799.28,13,-3.2023606678658068,-52.204276222862894
43.888/0001-29,A.C. SERVIÇOS (MEI) LTDA,Serviços (MEI),Trairão,Pará,45058.13,20154.97,8,-4.573523164278965,-55.941115294693546
52.788/0001-75,M.S. TECNOLOGIA LTDA,Tecnologia,Chaves,Pará,417277.95,331292.41,2,0.15628134657396447,-49.90886892637939
72.647/0001-83,M.S. VESTUÁRIO LTDA,Vestuário,Ananindeua,Pará,141434.17,121320.44,3,-1.3653847639444838,-48.36942096322831
83.379/0001-68,M.S. SERVIÇOS (MEI) LTDA,Serviços (MEI),Jacareacanga,Pará,18997.17,16390.41,2,-6.220634263936678,-57.762597720500885
91.164/0001-15,J.P. SERVIÇOS (MEI) LTDA,Serviços (MEI),Uruará,Pará,20045.87,10979.96,7,-3.717462780265245,-53.733741718531405
76.785/0001-39,M.S. SERVIÇOS (MEI) LTDA,Serviços (MEI),Castanhal,Pará,21622.94,16547.64,2,-1.2955925107366537,-47.928805543049954
96.888/0001-23,J.P. VESTUÁRIO LTDA,Vestuário,Inhangapi,Pará,613197.53,382755.4,10,-1.4253222564009285,-47.91958031940005
53.955/0001-80,J.P. TECNOLOGIA LTDA,Tecnologia,Ourém,Pará,236540.14,75534.12,14,-1.5514290627395655,-47.11349195717929
69.954/0001-17,A.C. LOGÍSTICA LTDA,Logística,Marapanim,Pará,478906.3,356807.53,3,-0.7190327156191005,-47.62864298558494
90.678/0001-16,M.S. SERVIÇOS (MEI) LTDA,Serviços (MEI),Primavera,Pará,13236.86,5880.38,7,-0.9405887122369789,-47.10011940552063
35.430/0001-68,J.P. TECNOLOGIA LTDA,Tecnologia,São Sebastião da Boa Vista,Pará,621511.21,331019.61,5,-1.7172019135585055,-49.5390027696562
67.945/0001-50,M.S. TECNOLOGIA LTDA,Tecnologia,Marabá,Pará,340576.18,306155.25,1,-5.358341785638244,-49.127063980876656
31.698/0001-84,J.P. SAÚDE LTDA,Saúde,Tailândia,Pará,188038.4,122671.1,4,-2.948321909792767,-48.95478857356676
32.685/0001-37,M.S. SERVIÇOS (MEI) LTDA,Serviços (MEI),Marabá,Pará,21882.69,6984.72,13,-5.359298083965577,-49.12274740426673
50.569/0001-65,J.P. ALIMENTAÇÃO LTDA,Alimentação,Terra Alta,Pará,710884.65,314013.69,10,-1.0356960920812952,-47.91532635486859
59.562/0001-39,M.S. VESTUÁRIO LTDA,Vestuário,Brejo Grande do Araguaia,Pará,372641.1,187269.5,12,-5.70072332719024,-48.513638216728914
51.875/0001-26,J.P. VESTUÁRIO LTDA,Vestuário,Senador José Porfírio,Pará,141707.74,96088.16,6,-2.5862845611422762,-51.945847439402066
68.498/0001-11,A.C. SAÚDE LTDA,Saúde,Rondon do Pará,Pará,261524.84,154232.72,10,-4.776646694983254,-48.06617012498664
73.917/0001-58,J.P. SERVIÇOS (MEI) LTDA,Serviços (MEI),Tucumã,Pará,27342.33,12728.55,9,-6.749668372825673,-50.04983975943564
56.405/0001-55,A.C. TECNOLOGIA LTDA,Tecnologia,Abaetetuba,Pará,278666.44,92809.04,13,-1.7229897783084365,-48.889061479591945
84.353/0001-64,M.S. SAÚDE LTDA,Saúde,Muaná,Pará,86461.87,56887.12,6,-1.529640082817408,-49.21363916168925
11.929/0001-24,J.P. ALIMENTAÇÃO LTDA,Alimentação,Jacundá,Pará,152879.29,115388.91,3,-4.4505893987183285,-49.11749267807138
30.592/0001-29,J.P. SERVIÇOS (MEI) LTDA,Serviços (MEI),Novo Progresso,Pará,11652.98,6572.78,6,-7.01829295536868,-55.37893089569597
23.924/0001-52,A.C. ALIMENTAÇÃO LTDA,Alimentação,São Caetano de Odivelas,Pará,520571.39,311872.78,6,-0.753806940391411,-48.0131738773281
43.954/0001-67,A.C. LOGÍSTICA LTDA,Logística,Brasil Novo,Pará,439033.68,193603.76,9,-3.2608566560703447,-52.518863943087354
76.466/0001-80,J.P. SAÚDE LTDA,Saúde,Ponta de Pedras,Pará,356721.28,180541.67,6,-1.385598025309354,-48.83908810452314
43.293/0001-77,A.C. ALIMENTAÇÃO LTDA,Alimentação,Belterra,Pará,78142.91,30112.3,11,-3.052010621579924,-54.943340878850094
23.561/0001-89,M.S. SERVIÇOS (MEI) LTDA,Serviços (MEI),Santo Antônio do Tauá,Pará,25922.16,13361.99,9,-1.1510722554632677,-48.12757216966491
84.362/0001-66,M.S. LOGÍSTICA LTDA,Logística,Santarém,Pará,783438.73,448888.51,10,-2.442240260738851,-54.7092119831465
67.179/0001-14,A.C. VESTUÁRIO LTDA,Vestuário,São Domingos do Araguaia,Pará,69337.16,55064.86,5,-5.535868308983339,-48.73314782156707
96.565/0001-95,M.S. TECNOLOGIA LTDA,Tecnologia,Bannach,Pará,169127.47,86790.51,8,-7.343699661324445,-50.51612983550451
78.217/0001-94,J.P. VESTUÁRIO LTDA,Vestuário,Colares,Pará,71418.05,36328.31,6,-0.9319040810399971,-48.2832173925459
83.781/0001-58,A.C. TECNOLOGIA LTDA,Tecnologia,Santa Maria do Pará,Pará,78628.26,57174.51,3,-1.3523468402516494,-47.57542718135437
95.806/0001-84,J.P. SAÚDE LTDA,Saúde,Bom Jesus do Tocantins,Pará,173347.82,122747.57,3,-5.013480462126227,-48.60609723632649
55.493/0001-26,J.P. VESTUÁRIO LTDA,Vestuário,Santarém Novo,Pará,565257.37,233820.05,13,-0.9279871636914339,-47.3975692459688
48.251/0001-97,J.P. TECNOLOGIA LTDA,Tecnologia,Trairão,Pará,281382.55,113788.5,9,-4.573676729951894,-55.94258184159016
27.369/0001-30,A.C. SAÚDE LTDA,Saúde,Cachoeira do Arari,Pará,307591.88,226519.13,6,-1.0132815415573395,-48.96538244003374
62.513/0001-95,J.P. ALIMENTAÇÃO LTDA,Alimentação,Alenquer,Pará,333993.43,191557.8,6,-1.9468509504137415,-54.73911381301948
70.759/0001-64,M.S. TECNOLOGIA LTDA,Tecnologia,Tomé-Açu,Pará,582102.38,288507.07,10,-2.420200354097028,-48.15090166173667
82.211/0001-20,J.P. ALIMENTAÇÃO LTDA,Alimentação,Cametá,Pará,660369.32,321576.26,9,-2.244717047805164,-49.49435270831857
93.585/0001-95,A.C. ALIMENTAÇÃO LTDA,Alimentação,Trairão,Pará,223383.13,188741.98,3,-4.573082813159183,-55.93987917795001
50.504/0001-66,M.S. ALIMENTAÇÃO LTDA,Alimentação,Colares,Pará,206295.74,134402.71,10,-0.9283188266495336,-48.28278497932972
53.910/0001-42,A.C. SERVIÇOS (MEI) LTDA,Serviços (MEI),Tomé-Açu,Pará,23774.9,9344.02,9,-2.4167105417263604,-48.152259119884036
46.696/0001-78,J.P. VESTUÁRIO LTDA,Vestuário,São Francisco do Pará,Pará,340160.79,280666.17,2,-1.1664589360056434,-47.79761279616969
68.508/0001-66,M.S. LOGÍSTICA LTDA,Logística,Barcarena,Pará,625206.55,425485.87,3,-1.5075328899996778,-48.62419490240622
47.663/0001-48,A.C. LOGÍSTICA LTDA,Logística,Itupiranga,Pará,343099.24,248482.91,4,-5.135369063210152,-49.32788954566399
34.130/0001-75,A.C. LOGÍSTICA LTDA,Logística,São Domingos do Araguaia,Pará,389802.55,190520.01,6,-5.537809647436122,-48.7337817623375
95.262/0001-92,J.P. TECNOLOGIA LTDA,Tecnologia,Goianésia do Pará,Pará,651939.32,206960.54,14,-3.8444158324302307,-49.09607819200008
46.376/0001-68,M.S. VESTUÁRIO LTDA,Vestuário,São João da Ponta,Pará,155495.56,121709.29,4,-0.8512626053825884,-47.91889301461377
91.421/0001-20,A.C. SERVIÇOS (MEI) LTDA,Serviços (MEI),Prainha,Pará,43363.8,14400.96,12,-1.806502819284469,-53.48160174099755
72.774/0001-72,J.P. LOGÍSTICA LTDA,Logística,Rondon do Pará,Pará,602169.58,206495.45,12,-4.7787889172069224,-48.0687368263558
67.206/0001-33,M.S. LOGÍSTICA LTDA,Logística,Redenção,Pará,741049.97,354711.93,7,-8.027153405433548,-50.03100886426368
53.373/0001-49,A.C. SERVIÇOS (MEI) LTDA,Serviços (MEI),Nova Esperança do Piriá,Pará,9956.52,4784.24,12,-2.2609660043108954,-46.964353065303534
87.133/0001-77,M.S. VESTUÁRIO LTDA,Vestuário,São Sebastião da Boa Vista,Pará,787369.4,375427.91,8,-1.71917942192565,-49.54356933360003
14.777/0001-53,A.C. ALIMENTAÇÃO LTDA,Alimentação,Concórdia do Pará,Pará,404990.02,372753.56,1,-1.99077446028471,-47.95363322215161
98.164/0001-88,M.S. VESTUÁRIO LTDA,Vestuário,Benevides,Pará,1138597.76,382642.15,12,-1.3613321683887456,-48.246734386370086
35.735/0001-72,A.C. ALIMENTAÇÃO LTDA,Alimentação,Anapu,Pará,412681.32,337722.41,2,-3.4699570189681364,-51.198148978392425
26.480/0001-37,M.S. VESTUÁRIO LTDA,Vestuário,Floresta do Araguaia,Pará,499785.27,267795.22,7,-7.782103089438035,-49.39810492293651
86.159/0001-69,A.C. LOGÍSTICA LTDA,Logística,Bragança,Pará,269388.76,207754.29,2,-1.0558554736452457,-46.76540152950325
76.232/0001-78,A.C. TECNOLOGIA LTDA,Tecnologia,Cametá,Pará,425931.98,290315.97,5,-2.241872331603965,-49.494847899493095
66.783/0001-62,A.C. VESTUÁRIO LTDA,Vestuário,Tomé-Açu,Pará,569150.96,303726.61,6,-2.418838530963343,-48.1480071148728
38.171/0001-71,M.S. SAÚDE LTDA,Saúde,Almeirim,Pará,583966.78,174804.22,14,-1.5236007530250106,-52.58086210692186
85.641/0001-45,M.S. LOGÍSTICA LTDA,Logística,Santarém Novo,Pará,180799.95,127907.42,6,-0.9290782756269756,-47.395657628967975
24.782/0001-37,M.S. VESTUÁRIO LTDA,Vestuário,São João da Ponta,Pará,406122.11,315360.09,3,-0.8547475340435701,-47.92334265137839
69.337/0001-24,M.S. TECNOLOGIA LTDA,Tecnologia,Terra Santa,Pará,395200.57,285872.19,4,-2.1048060886408675,-56.48451405401081
39.303/0001-67,J.P. SERVIÇOS (MEI) LTDA,Serviços (MEI),Jacareacanga,Pará,2350.9,1797.11,3,-6.22181988344647,-57.762760259947406
87.387/0001-10,M.S. ALIMENTAÇÃO LTDA,Alimentação,Barcarena,Pará,850926.72,374574.03,12,-1.5036302736249787,-48.624529372143385
81.354/0001-45,M.S. LOGÍSTICA LTDA,Logística,Uruará,Pará,517377.82,307982.44,7,-3.719610180510847,-53.7368873530046
32.583/0001-26,J.P. SERVIÇOS (MEI) LTDA,Serviços (MEI),Rondon do Pará,Pará,7386.24,5401.48,5,-4.774535928003367,-48.06450633344395
28.920/0001-86,A.C. VESTUÁRIO LTDA,Vestuário,Tucumã,Pará,308898.64,137922.61,8,-6.747877333736251,-50.04967231054164
56.377/0001-60,J.P. TECNOLOGIA LTDA,Tecnologia,Baião,Pará,382370.93,194000.61,7,-2.7936620334473665,-49.67800978557606
14.206/0001-91,M.S. SERVIÇOS (MEI) LTDA,Serviços (MEI),Altamira,Pará,18148.45,7177.27,10,-3.2007841545288875,-52.208712200107435
29.728/0001-55,J.P. LOGÍSTICA LTDA,Logística,Monte Alegre,Pará,148779.04,99553.53,4,-2.0047949665828475,-54.067626405896895
54.311/0001-49,A.C. ALIMENTAÇÃO LTDA,Alimentação,Prainha,Pará,490161.79,234235.53,7,-1.8095065380868287,-53.481663244803805
50.427/0001-24,M.S. ALIMENTAÇÃO LTDA,Alimentação,Canaã dos Carajás,Pará,443801.98,214857.45,8,-6.4956443865676565,-49.8733739506502
11.981/0001-22,A.C. ALIMENTAÇÃO LTDA,Alimentação,Xinguara,Pará,318972.47,255249.87,3,-7.096270267534873,-49.94214298202278
40.703/0001-33,A.C. VESTUÁRIO LTDA,Vestuário,Placas,Pará,310330.18,199778.88,5,-3.8676633899220296,-54.22145918769772
32.470/0001-84,A.C. TECNOLOGIA LTDA,Tecnologia,Augusto Corrêa,Pará,473655.78,252457.04,5,-1.020729930481862,-46.63101508619544
84.319/0001-31,J.P. LOGÍSTICA LTDA,Logística,Novo Repartimento,Pará,187178.38,127695.13,4,-4.251000377749882,-49.94370773465003
67.300/0001-19,A.C. LOGÍSTICA LTDA,Logística,Baião,Pará,93535.36,56435.3,12,-2.794311317099128,-49.67317378156775
57.884/0001-86,J.P. SAÚDE LTDA,Saúde,Santa Maria do Pará,Pará,405824.79,245995.28,10,-1.3513557292722913,-47.57455420362044
78.393/0001-80,A.C. SAÚDE LTDA,Saúde,Cametá,Pará,633281.12,356986.24,5,-2.242197662972425,-49.49488404929946
86.741/0001-76,M.S. TECNOLOGIA LTDA,Tecnologia,Eldorado do Carajás,Pará,675546.31,410800.25,6,-6.1016828090252995,-49.357161283107644
13.432/0001-76,A.C. SAÚDE LTDA,Saúde,Ulianópolis,Pará,302610.15,266498.77,1,-3.7439503315540508,-47.333292652066206
78.165/0001-26,A.C. VESTUÁRIO LTDA,Vestuário,Trairão,Pará,367183.91,117450.97,14,-4.575691130426381,-55.93801211947314
12.258/0001-72,A.C. SAÚDE LTDA,Saúde,Alenquer,Pará,1031416.32,380314.2,11,-1.9479498908561872,-54.738313996268516
10.795/0001-98,M.S. SERVIÇOS (MEI) LTDA,Serviços (MEI),Cachoeira do Piriá,Pará,22724.47,13355.78,9,-1.7581906427920735,-46.540334782172785
10.772/0001-89,J.P. ALIMENTAÇÃO LTDA,Alimentação,Moju,Pará,622403.26,381182.81,12,-1.88181835152007,-48.76937741359488
14.644/0001-82,A.C. TECNOLOGIA LTDA,Tecnologia,Santa Cruz do Arari,Pará,177124.04,143675.19,3,-0.6667792042742545,-49.17889116130224
18.520/0001-95,M.S. ALIMENTAÇÃO LTDA,Alimentação,Oriximiná,Pará,67925.78,49441.42,5,-1.7662547113058757,-55.86628075778346
18.711/0001-38,J.P. SAÚDE LTDA,Saúde,Igarapé-Açu,Pará,353637.25,211229.73,5,-1.1289906814694926,-47.618223887562316
73.494/0001-53,M.S. SERVIÇOS (MEI) LTDA,Serviços (MEI),Palestina do Pará,Pará,29025.79,20224.44,7,-5.739360676602436,-48.31543075265826
43.915/0001-47,A.C. SERVIÇOS (MEI) LTDA,Serviços (MEI),Dom Eliseu,Pará,44686.95,19549.41,14,-4.283217939362641,-47.50216989729168
29.913/0001-23,J.P. ALIMENTAÇÃO LTDA,Alimentação,Santarém Novo,Pará,755846.43,254972.16,14,-0.9298918609181248,-47.39386664670715
98.533/0001-75,J.P. ALIMENTAÇÃO LTDA,Alimentação,Soure,Pará,345575.1,108306.5,14,-0.7131109840685145,-48.520046724826436
56.439/0001-23,J.P. TECNOLOGIA LTDA,Tecnologia,Santarém,Pará,965510.55,365061.17,10,-2.4452502560674096,-54.710489726828186
72.398/0001-78,A.C. SERVIÇOS (MEI) LTDA,Serviços (MEI),Igarapé-Açu,Pará,19560.67,15202.41,3,-1.126865731269898,-47.62353988129112
30.208/0001-70,M.S. TECNOLOGIA LTDA,Tecnologia,Tomé-Açu,Pará,307636.4,185805.25,10,-2.415546082066053,-48.15379496057325
22.856/0001-61,A.C. SAÚDE LTDA,Saúde,Anapu,Pará,660481.39,238534.53,11,-3.4745441397969135,-51.20339587453271
41.338/0001-76,J.P. ALIMENTAÇÃO LTDA,Alimentação,Colares,Pará,734278.18,411487.66,9,-0.9292244920067577,-48.28565987928619
51.270/0001-97,A.C. SAÚDE LTDA,Saúde,Mãe do Rio,Pará,401994.08,354801.02,1,-2.0516391886396255,-47.549146636191956
47.451/0001-10,J.P. VESTUÁRIO LTDA,Vestuário,Novo Repartimento,Pará,32951.66,23428.74,7,-4.253231984536534,-49.94366354696195
16.609/0001-50,M.S. SERVIÇOS (MEI) LTDA,Serviços (MEI),Vitória do Xingu,Pará,32642.53,17707.77,11,-2.882840316636733,-52.00749447787247
89.644/0001-39,M.S. SAÚDE LTDA,Saúde,Concórdia do Pará,Pará,358589.76,322258.53,1,-1.9891951726596735,-47.95003584708421
30.764/0001-48,M.S. TECNOLOGIA LTDA,Tecnologia,Ananindeua,Pará,1123844.55,418484.33,14,-1.367771843389827,-48.36927834284496
78.813/0001-64,M.S. ALIMENTAÇÃO LTDA,Alimentação,Sapucaia,Pará,500299.71,323978.69,8,-6.9473134943023025,-49.68329247301445
85.530/0001-31,J.P. LOGÍSTICA LTDA,Logística,São Domingos do Araguaia,Pará,690198.41,285771.61,10,-5.535290659725209,-48.73221632326682
84.744/0001-85,J.P. VESTUÁRIO LTDA,Vestuário,Cametá,Pará,86598.31,36153.25,10,-2.246692354325376,-49.494201961342725
81.641/0001-31,M.S. SAÚDE LTDA,Saúde,Redenção,Pará,927358.18,449502.12,9,-8.023903059696794,-50.031038702499615
77.309/0001-37,J.P. TECNOLOGIA LTDA,Tecnologia,Moju,Pará,397490.59,362955.85,1,-1.8813375370603092,-48.76604626783003
23.318/0001-82,A.C. SAÚDE LTDA,Saúde,Vitória do Xingu,Pará,203068.47,122237.5,7,-2.879911024461659,-52.00492270267773
12.467/0001-73,J.P. VESTUÁRIO LTDA,Vestuário,Maracanã,Pará,278980.75,123523.27,9,-0.7659639608186345,-47.44925221745742
36.383/0001-22,M.S. TECNOLOGIA LTDA,Tecnologia,Brejo Grande do Araguaia,Pará,221450.74,142118.47,8,-5.695437916895895,-48.51366841757734
18.552/0001-91,M.S. TECNOLOGIA LTDA,Tecnologia,Portel,Pará,546711.68,316851.7,9,-1.9364289100997163,-50.81908174086077
50.957/0001-39,M.S. VESTUÁRIO LTDA,Vestuário,Oeiras do Pará,Pará,57909.73,30922.15,6,-2.00471232254728,-49.856244974111675
18.939/0001-16,J.P. SERVIÇOS (MEI) LTDA,Serviços (MEI),Parauapebas,Pará,14939.61,6371.84,8,-6.064838996776715,-49.90278725541872
40.691/0001-83,A.C. VESTUÁRIO LTDA,Vestuário,Portel,Pará,228192.79,138912.54,5,-1.938370096650082,-50.82193955112955
94.718/0001-88,J.P. SERVIÇOS (MEI) LTDA,Serviços (MEI),Limoeiro do Ajuru,Pará,18275.67,9720.67,9,-1.8928660309275795,-49.37930141072552
83.966/0001-52,J.P. LOGÍSTICA LTDA,Logística,Ourém,Pará,290784.86,135686.94,8,-1.5532009139205998,-47.108382576807614
18.159/0001-70,M.S. VESTUÁRIO LTDA,Vestuário,Ourém,Pará,979703.94,385828.11,12,-1.5546987178625067,-47.1093906585774
50.146/0001-10,J.P. VESTUÁRIO LTDA,Vestuário,Marapanim,Pará,597969.09,317678.5,6,-0.7201741439243053,-47.62964209486232
79.757/0001-46,A.C. TECNOLOGIA LTDA,Tecnologia,Tomé-Açu,Pará,654289.29,209385.86,13,-2.4186431715329375,-48.14999021400076
83.734/0001-66,M.S. SERVIÇOS (MEI) LTDA,Serviços (MEI),Senador José Porfírio,Pará,45639.18,18609.31,9,-2.5852480401310176,-51.94876398872131
78.119/0001-10,M.S. SERVIÇOS (MEI) LTDA,Serviços (MEI),Muaná,Pará,18528.6,16472.19,2,-1.5256333917059914,-49.218619293657945
29.263/0001-45,M.S. TECNOLOGIA LTDA,Tecnologia,Mocajuba,Pará,721753.06,383571.24,7,-2.584124574984556,-49.50466023896251
22.751/0001-25,J.P. ALIMENTAÇÃO LTDA,Alimentação,Igarapé-Miri,Pará,370964.32,252793.16,4,-1.9755868944313324,-48.959575552579594
37.824/0001-65,M.S. VESTUÁRIO LTDA,Vestuário,Benevides,Pará,60669.06,56276.53,1,-1.3611376600291598,-48.24727622300528
96.832/0001-59,J.P. SERVIÇOS (MEI) LTDA,Serviços (MEI),Tucuruí,Pará,12257.2,6448.93,6,-3.7615364091021752,-49.67525697053641
91.619/0001-18,M.S. LOGÍSTICA LTDA,Logística,Cachoeira do Piriá,Pará,398257.3,163063.41,12,-1.7606604030434185,-46.54005344090389
20.709/0001-12,J.P. TECNOLOGIA LTDA,Tecnologia,Magalhães Barata,Pará,877221.53,358372.32,9,-0.7970672174260935,-47.593128054060614
15.462/0001-78,J.P. SAÚDE LTDA,Saúde,Curralinho,Pará,199251.75,95180.01,9,-1.8169735984172626,-49.79198441362699
39.310/0001-79,M.S. SERVIÇOS (MEI) LTDA,Serviços (MEI),Barcarena,Pará,33241.64,15206.57,8,-1.5074402048608562,-48.62656659656735
33.413/0001-13,M.S. LOGÍSTICA LTDA,Logística,Curralinho,Pará,127876.07,71864.78,14,-1.8128394283003446,-49.795586795503425
93.653/0001-71,M.S. ALIMENTAÇÃO LTDA,Alimentação,Capanema,Pará,801932.51,277169.46,11,-1.1953674891138546,-47.17909719500375
25.330/0001-44,A.C. LOGÍSTICA LTDA,Logística,Ourém,Pará,879337.49,433746.81,8,-1.5519785986438757,-47.112342728894724
33.179/0001-82,M.S. SERVIÇOS (MEI) LTDA,Serviços (MEI),Xinguara,Pará,43643.68,21720.66,8,-7.09841967125274,-49.94527696512434
62.214/0001-51,M.S. LOGÍSTICA LTDA,Logística,Água Azul do Norte,Pará,709308.93,357033.76,6,-6.7828174213673025,-50.47979357045212
68.951/0001-59,J.P. VESTUÁRIO LTDA,Vestuário,Muaná,Pará,287951.89,259012.67,1,-1.5296178926585264,-49.21666308368509
14.569/0001-25,J.P. TECNOLOGIA LTDA,Tecnologia,Floresta do Araguaia,Pará,462239.91,199595.85,13,-7.783095529703297,-49.39880055110089
14.645/0001-61,A.C. TECNOLOGIA LTDA,Tecnologia,Aveiro,Pará,560804.96,190659.96,14,-3.6061197477929396,-55.33171532720868
66.771/0001-24,M.S. SAÚDE LTDA,Saúde,Óbidos,Pará,147131.68,133437.37,1,-1.918248822384703,-55.519284881055995
80.510/0001-92,A.C. VESTUÁRIO LTDA,Vestuário,Curionópolis,Pará,189057.34,84372.96,9,-6.1026533971242305,-49.59992951228159
13.218/0001-75,J.P. ALIMENTAÇÃO LTDA,Alimentação,Curralinho,Pará,44936.47,38848.36,2,-1.812599156539435,-49.79372739421245
25.433/0001-51,J.P. ALIMENTAÇÃO LTDA,Alimentação,Magalhães Barata,Pará,481974.94,279971.82,14,-0.7958046784214106,-47.598330613045896
96.752/0001-50,J.P. SERVIÇOS (MEI) LTDA,Serviços (MEI),Oriximiná,Pará,36367.11,24225.0,8,-1.7637460848326967,-55.86410722483268
81.416/0001-25,A.C. VESTUÁRIO LTDA,Vestuário,Tailândia,Pará,105404.96,71325.04,5,-2.944584376540425,-48.953515219332644
78.766/0001-69,J.P. ALIMENTAÇÃO LTDA,Alimentação,Xinguara,Pará,973566.98,332181.55,11,-7.097291945532117,-49.94631434117842
20.794/0001-14,J.P. VESTUÁRIO LTDA,Vestuário,Paragominas,Pará,292041.73,277326.87,1,-2.9976897509633127,-47.35384167214714
29.356/0001-19,M.S. SAÚDE LTDA,Saúde,Jacundá,Pará,413634.58,227473.86,5,-4.4537456163471445,-49.11509974105339
15.308/0001-11,M.S. LOGÍSTICA LTDA,Logística,Marabá,Pará,399496.02,256380.66,6,-5.362921404312155,-49.12334852852662
86.403/0001-51,M.S. SAÚDE LTDA,Saúde,São Sebastião da Boa Vista,Pará,546055.69,308061.05,9,-1.7167752304756874,-49.5388686409561
37.261/0001-18,M.S. VESTUÁRIO LTDA,Vestuário,Maracanã,Pará,1089602.11,425497.23,12,-0.7645490322444638,-47.448128008947734
90.232/0001-91,J.P. VESTUÁRIO LTDA,Vestuário,Curuá,Pará,265852.16,200630.74,2,-1.902402383990169,-54.1138973736071
31.362/0001-63,J.P. TECNOLOGIA LTDA,Tecnologia,Primavera,Pará,625140.55,447122.68,5,-0.9429714887016498,-47.09767325171373
10.268/0001-59,M.S. ALIMENTAÇÃO LTDA,Alimentação,Terra Santa,Pará,259752.55,234348.68,1,-2.106364088626628,-56.48727259642202
11.496/0001-25,J.P. LOGÍSTICA LTDA,Logística,Tomé-Açu,Pará,52249.59,28508.69,6,-2.418626209103834,-48.150866733173345
35.450/0001-54,A.C. SERVIÇOS (MEI) LTDA,Serviços (MEI),Monte Alegre,Pará,23496.57,13488.43,8,-2.0052471817181368,-54.06979030587621
12.371/0001-89,J.P. ALIMENTAÇÃO LTDA,Alimentação,São João de Pirabas,Pará,475631.28,424749.71,2,-0.7717329808279518,-47.1718425433605
17.119/0001-39,A.C. SERVIÇOS (MEI) LTDA,Serviços (MEI),São Domingos do Capim,Pará,25618.37,9201.48,10,-1.6724588967072054,-47.7681887759157
76.745/0001-25,A.C. LOGÍSTICA LTDA,Logística,Rio Maria,Pará,603973.5,353367.83,8,-7.309367114530634,-50.01863093119858
69.558/0001-72,J.P. SERVIÇOS (MEI) LTDA,Serviços (MEI),Cumaru do Norte,Pará,18254.13,9327.25,10,-7.831856412842969,-50.779757876529715
90.326/0001-63,A.C. VESTUÁRIO LTDA,Vestuário,Bragança,Pará,322537.74,100800.68,14,-1.0531289604640417,-46.76527554243636
88.515/0001-63,M.S. SERVIÇOS (MEI) LTDA,Serviços (MEI),Porto de Moz,Pará,8017.56,4239.69,14,-1.7509150462294178,-52.24092326789545
69.643/0001-48,M.S. VESTUÁRIO LTDA,Vestuário,Vitória do Xingu,Pará,58572.78,39584.21,8,-2.881202100223606,-52.005327167222866
40.144/0001-62,M.S. VESTUÁRIO LTDA,Vestuário,Ponta de Pedras,Pará,299628.22,156598.33,8,-1.3866810802462561,-48.841217049615814
54.947/0001-65,M.S. ALIMENTAÇÃO LTDA,Alimentação,Concórdia do Pará,Pará,365819.72,336454.55,1,-1.993914787703619,-47.94807033757072
37.904/0001-63,M.S. SERVIÇOS (MEI) LTDA,Serviços (MEI),Medicilândia,Pará,6164.29,2545.98,12,-3.446829211811823,-52.88512399710325
84.249/0001-23,M.S. SAÚDE LTDA,Saúde,Afuá,Pará,568009.69,277907.58,12,-0.1574633604595823,-50.38669067086176
40.405/0001-59,A.C. SERVIÇOS (MEI) LTDA,Serviços (MEI),Rurópolis,Pará,29657.49,11223.65,14,-4.09348329045868,-54.906506759312514
70.875/0001-86,A.C. SERVIÇOS (MEI) LTDA,Serviços (MEI),Floresta do Araguaia,Pará,30936.71,21335.86,5,-7.782405822894321,-49.39720746834988
28.324/0001-79,M.S. LOGÍSTICA LTDA,Logística,Breves,Pará,868590.32,329174.11,10,-1.681109955557027,-50.48133232134085
33.307/0001-77,M.S. ALIMENTAÇÃO LTDA,Alimentação,Maracanã,Pará,211527.25,180330.34,1,-0.7671592063728461,-47.45123599492796
59.834/0001-20,J.P. VESTUÁRIO LTDA,Vestuário,Cachoeira do Arari,Pará,449980.48,237044.92,13,-1.0088755257574313,-48.96059431514206
53.539/0001-79,M.S. VESTUÁRIO LTDA,Vestuário,São Geraldo do Araguaia,Pará,181541.07,116836.98,9,-6.398941881196238,-48.54062135940485
74.293/0001-78,A.C. SAÚDE LTDA,Saúde,Muaná,Pará,136908.94,83802.94,4,-1.5291448455605068,-49.21804152291217
40.153/0001-39,J.P. SAÚDE LTDA,Saúde,Ulianópolis,Pará,378868.28,246190.81,7,-3.742773578494475,-47.32851576486188
54.240/0001-40,M.S. TECNOLOGIA LTDA,Tecnologia,Tucumã,Pará,543013.93,312890.74,8,-6.750302114885613,-50.049900797502985
98.943/0001-74,M.S. SERVIÇOS (MEI) LTDA,Serviços (MEI),Rurópolis,Pará,41157.32,24896.37,4,-4.095080726745477,-54.90666169947545
75.497/0001-70,A.C. TECNOLOGIA LTDA,Tecnologia,Acará,Pará,253254.21,135453.92,9,-1.9596930976279443,-48.1950948316486
96.573/0001-70,M.S. VESTUÁRIO LTDA,Vestuário,Anapu,Pará,942194.56,279030.16,14,-3.4725706500597036,-51.198070963993594
84.101/0001-33,A.C. ALIMENTAÇÃO LTDA,Alimentação,Palestina do Pará,Pará,174355.58,109607.74,10,-5.743522509541549,-48.31503374985515
74.437/0001-37,A.C. ALIMENTAÇÃO LTDA,Alimentação,São João de Pirabas,Pará,226443.59,93905.83,8,-0.769495546174823,-47.16830900884572
59.736/0001-79,J.P. VESTUÁRIO LTDA,Vestuário,Afuá,Pará,391192.47,279788.01,3,-0.15527335240684567,-50.38327934630327
73.427/0001-83,M.S. TECNOLOGIA LTDA,Tecnologia,Santa Cruz do Arari,Pará,49382.14,24050.06,6,-0.6631607953559292,-49.176594926545654
91.624/0001-70,J.P. SAÚDE LTDA,Saúde,Cumaru do Norte,Pará,1010502.56,341564.15,14,-7.82816654401655,-50.77925056883202
38.904/0001-58,M.S. LOGÍSTICA LTDA,Logística,Inhangapi,Pará,503001.66,256835.93,6,-1.4305815010996592,-47.91857917634126
63.156/0001-81,J.P. SAÚDE LTDA,Saúde,Eldorado do Carajás,Pará,434679.2,251171.22,5,-6.1013716731714025,-49.356390280988386
87.323/0001-58,M.S. TECNOLOGIA LTDA,Tecnologia,Oeiras do Pará,Pará,469243.23,294230.77,9,-2.003054878535596,-49.85323854571643
64.147/0001-65,J.P. ALIMENTAÇÃO LTDA,Alimentação,Canaã dos Carajás,Pará,560852.96,328585.12,10,-6.496280922729667,-49.876183335986305
81.491/0001-62,M.S. SAÚDE LTDA,Saúde,São Francisco do Pará,Pará,89593.84,76972.94,2,-1.166690716663139,-47.797236079612
29.462/0001-51,M.S. LOGÍSTICA LTDA,Logística,São João do Araguaia,Pará,344624.11,180126.83,6,-5.357468925740733,-48.78800933333679
51.398/0001-61,J.P. LOGÍSTICA LTDA,Logística,Bujaru,Pará,937531.07,444982.64,9,-1.5151208432483745,-48.04231787744907
85.704/0001-86,M.S. ALIMENTAÇÃO LTDA,Alimentação,Prainha,Pará,95042.1,81903.16,1,-1.809132486774288,-53.48198450319308
74.150/0001-11,A.C. TECNOLOGIA LTDA,Tecnologia,Santa Maria do Pará,Pará,957033.0,442864.82,9,-1.355033714838373,-47.5751205474328
54.980/0001-19,M.S. LOGÍSTICA LTDA,Logística,Conceição do Araguaia,Pará,333911.49,182235.11,11,-8.256453432689597,-49.26518014713219
22.753/0001-62,J.P. SERVIÇOS (MEI) LTDA,Serviços (MEI),Floresta do Araguaia,Pará,29925.65,20827.15,4,-7.782083454163176,-49.39594017742797
14.387/0001-52,A.C. SERVIÇOS (MEI) LTDA,Serviços (MEI),Marapanim,Pará,5774.17,2278.96,10,-0.718392902384853,-47.63116901663098
87.766/0001-92,M.S. SERVIÇOS (MEI) LTDA,Serviços (MEI),Itaituba,Pará,36246.86,15131.5,9,-4.278689703207644,-55.98530542277628
46.383/0001-39,M.S. VESTUÁRIO LTDA,Vestuário,Chaves,Pará,713096.85,306400.79,12,0.1579203400086109,-49.90870611772598
96.955/0001-79,M.S. SAÚDE LTDA,Saúde,Santa Luzia do Pará,Pará,70669.49,37592.7,10,-1.5149091287508265,-46.91378624740517
26.378/0001-32,A.C. ALIMENTAÇÃO LTDA,Alimentação,Terra Alta,Pará,826672.09,396558.41,13,-1.0408095792423873,-47.9145224828425
20.684/0001-78,J.P. LOGÍSTICA LTDA,Logística,Terra Santa,Pará,43861.39,33641.69,3,-2.1049150778113375,-56.48508093402587
60.622/0001-74,M.S. SAÚDE LTDA,Saúde,Floresta do Araguaia,Pará,949279.47,387167.93,10,-7.779791581016093,-49.398445173276876
87.467/0001-79,J.P. SERVIÇOS (MEI) LTDA,Serviços (MEI),Igarapé-Miri,Pará,4719.14,3982.45,2,-1.9735855989765818,-48.958749501914376
54.237/0001-38,M.S. VESTUÁRIO LTDA,Vestuário,Redenção,Pará,200002.2,159779.72,3,-8.028357905650006,-50.029538152162985
57.871/0001-12,J.P. ALIMENTAÇÃO LTDA,Alimentação,Quatipuru,Pará,866291.67,447781.66,11,-0.893716681303818,-47.004582917023164
26.461/0001-72,A.C. VESTUÁRIO LTDA,Vestuário,Dom Eliseu,Pará,893626.7,402905.3,7,-4.284567768845851,-47.50242896376231
77.545/0001-87,A.C. ALIMENTAÇÃO LTDA,Alimentação,Igarapé-Miri,Pará,199746.29,150683.9,2,-1.976716810879527,-48.958300108643975
63.873/0001-13,A.C. VESTUÁRIO LTDA,Vestuário,Bragança,Pará,903210.33,341143.87,10,-1.0515243223195003,-46.76616593978043
12.815/0001-68,M.S. LOGÍSTICA LTDA,Logística,Bannach,Pará,410314.2,247533.7,8,-7.348500861022802,-50.5166463759534
91.280/0001-17,M.S. VESTUÁRIO LTDA,Vestuário,Abel Figueiredo,Pará,746204.42,394150.1,7,-4.954278176242807,-48.39984777930114
17.868/0001-62,M.S. SERVIÇOS (MEI) LTDA,Serviços (MEI),Bujaru,Pará,13154.0,5409.85,14,-1.5167963907194386,-48.03945818091605
25.961/0001-17,A.C. SERVIÇOS (MEI) LTDA,Serviços (MEI),Acará,Pará,25628.3,19685.99,2,-1.9634602002436565,-48.19870907634422
88.611/0001-76,M.S. LOGÍSTICA LTDA,Logística,Ananindeua,Pará,632815.75,364658.18,12,-1.3651022933443289,-48.37198503274883
29.752/0001-96,J.P. VESTUÁRIO LTDA,Vestuário,Pacajá,Pará,752920.65,371528.86,9,-3.836515390350133,-50.63374468035675
52.686/0001-54,M.S. ALIMENTAÇÃO LTDA,Alimentação,Marapanim,Pará,430315.98,319140.01,3,-0.7173207662393395,-47.631939838415015
59.638/0001-63,J.P. VESTUÁRIO LTDA,Vestuário,Santarém Novo,Pará,219118.85,100571.42,10,-0.9300859202279756,-47.39495548416709
43.561/0001-54,A.C. VESTUÁRIO LTDA,Vestuário,Acará,Pará,340184.91,194788.54,11,-1.959093510169984,-48.19868388102842
49.726/0001-23,A.C. SERVIÇOS (MEI) LTDA,Serviços (MEI),Abel Figueiredo,Pará,39850.16,24658.89,6,-4.9549199362435425,-48.39496969503986
15.629/0001-71,J.P. LOGÍSTICA LTDA,Logística,Faro,Pará,168756.14,92431.61,9,-2.1720382856574667,-56.74220697749391
61.722/0001-30,A.C. SERVIÇOS (MEI) LTDA,Serviços (MEI),Itupiranga,Pará,2089.9,1122.1,14,-5.133643172700788,-49.32779024030627
69.694/0001-22,J.P. SAÚDE LTDA,Saúde,Bom Jesus do Tocantins,Pará,376812.05,239416.76,4,-5.01637539188308,-48.60689389541961
84.615/0001-40,A.C. TECNOLOGIA LTDA,Tecnologia,São Geraldo do Araguaia,Pará,367728.84,311704.01,3,-6.4034845441056545,-48.535636550337905
65.547/0001-67,J.P. ALIMENTAÇÃO LTDA,Alimentação,Cumaru do Norte,Pará,499339.54,333141.42,5,-7.83050611144383,-50.78271306092553
86.611/0001-14,A.C. SAÚDE LTDA,Saúde,Alenquer,Pará,54923.44,33635.09,6,-1.9476620683262766,-54.73648824275453
40.352/0001-21,M.S. ALIMENTAÇÃO LTDA,Alimentação,Água Azul do Norte,Pará,55867.69,49793.41,1,-6.784172072711493,-50.48375879579793
73.192/0001-89,M.S. VESTUÁRIO LTDA,Vestuário,Salvaterra,Pará,382518.04,327970.32,1,-0.758353932493985,-48.516553424905936
65.310/0001-88,J.P. TECNOLOGIA LTDA,Tecnologia,Santa Maria das Barreiras,Pará,575458.5,279507.31,12,-8.8695553518856,-49.712844355924176
72.210/0001-21,A.C. ALIMENTAÇÃO LTDA,Alimentação,Santarém,Pará,600363.9,332801.22,5,-2.442846699061585,-54.70665191974098
93.570/0001-54,A.C. VESTUÁRIO LTDA,Vestuário,Curuá,Pará,174053.68,151180.8,1,-1.9043174790202153,-54.11396780318923
78.357/0001-77,A.C. ALIMENTAÇÃO LTDA,Alimentação,Tucumã,Pará,501244.09,241677.08,14,-6.749306791536817,-50.04849484658863
73.326/0001-51,M.S. LOGÍSTICA LTDA,Logística,Vigia,Pará,327660.87,120658.89,12,-0.855072186366032,-48.1438963974081
59.786/0001-18,A.C. SERVIÇOS (MEI) LTDA,Serviços (MEI),Medicilândia,Pará,29345.4,11766.83,11,-3.442174966888901,-52.88521391170735
84.147/0001-12,A.C. LOGÍSTICA LTDA,Logística,Bonito,Pará,1111365.85,353791.53,14,-1.363017656563446,-47.30551742482734
32.431/0001-15,A.C. LOGÍSTICA LTDA,Logística,Ourém,Pará,356329.87,161730.04,12,-1.5541806564399194,-47.11134000111719
42.771/0001-72,J.P. SERVIÇOS (MEI) LTDA,Serviços (MEI),Ourilândia do Norte,Pará,15208.5,13139.51,2,-6.752661171793836,-51.089875610584606
34.469/0001-14,M.S. LOGÍSTICA LTDA,Logística,Sapucaia,Pará,149605.96,118739.84,4,-6.9470621976702605,-49.68159587391991
71.851/0001-18,M.S. LOGÍSTICA LTDA,Logística,Marapanim,Pará,343403.98,262795.97,4,-0.7185095489020153,-47.62911621456544
18.579/0001-63,M.S. TECNOLOGIA LTDA,Tecnologia,Bujaru,Pará,519140.68,281591.37,10,-1.5156455964832476,-48.039322867191956
54.821/0001-19,J.P. SERVIÇOS (MEI) LTDA,Serviços (MEI),Abel Figueiredo,Pará,52958.62,23639.81,8,-4.952324374040919,-48.39915343367568
26.912/0001-34,M.S. SAÚDE LTDA,Saúde,Santa Maria do Pará,Pará,448033.14,203503.69,7,-1.353809870230718,-47.575907229751344
65.851/0001-44,M.S. SAÚDE LTDA,Saúde,Bonito,Pará,31445.67,21941.68,5,-1.3605135823302574,-47.30450235001842
79.232/0001-72,J.P. SAÚDE LTDA,Saúde,Soure,Pará,313926.92,130559.04,8,-0.7163608801176149,-48.52342703993258
60.865/0001-57,J.P. TECNOLOGIA LTDA,Tecnologia,São Geraldo do Araguaia,Pará,345168.46,101327.88,14,-6.401748916556671,-48.53770267608492
51.389/0001-25,A.C. SAÚDE LTDA,Saúde,Xinguara,Pará,286552.79,230578.77,2,-7.095354333322668,-49.94336636420113
39.136/0001-64,J.P. SAÚDE LTDA,Saúde,Tracuateua,Pará,413033.5,312407.36,2,-1.0736316781835256,-46.90612651769284
97.521/0001-45,M.S. SERVIÇOS (MEI) LTDA,Serviços (MEI),Aveiro,Pará,36338.38,19383.83,5,-3.6095204999029304,-55.33091843946377
55.130/0001-98,J.P. LOGÍSTICA LTDA,Logística,São Francisco do Pará,Pará,790483.55,302607.03,10,-1.1679984048358771,-47.79358099852102
56.721/0001-34,A.C. TECNOLOGIA LTDA,Tecnologia,Conceição do Araguaia,Pará,572379.04,408129.01,6,-8.25603394666839,-49.26129733307238
71.655/0001-32,J.P. TECNOLOGIA LTDA,Tecnologia,São Domingos do Capim,Pará,443668.54,326249.31,4,-1.6725289343894838,-47.77320928032037
27.347/0001-37,A.C. SERVIÇOS (MEI) LTDA,Serviços (MEI),Marapanim,Pará,23220.42,20794.98,1,-0.7166703946662933,-47.63100319665346
40.874/0001-66,A.C. SAÚDE LTDA,Saúde,São Geraldo do Araguaia,Pará,313653.32,230415.86,6,-6.400356671975678,-48.537775476677595
92.154/0001-72,M.S. SERVIÇOS (MEI) LTDA,Serviços (MEI),Bom Jesus do Tocantins,Pará,5960.41,5292.43,1,-5.014130492230743,-48.60517759894517
78.717/0001-86,M.S. SAÚDE LTDA,Saúde,Ipixuna do Pará,Pará,289324.24,214098.15,3,-2.559340492062865,-47.497867350087155
16.837/0001-13,J.P. SAÚDE LTDA,Saúde,Piçarra,Pará,38906.83,29615.27,2,-6.440278663370985,-48.870036920746166
83.900/0001-67,A.C. LOGÍSTICA LTDA,Logística,Porto de Moz,Pará,480998.46,249080.12,8,-1.7450298549868342,-52.24062042873591
38.203/0001-83,J.P. SERVIÇOS (MEI) LTDA,Serviços (MEI),Juruti,Pará,12275.06,5362.51,12,-2.1527866496357793,-56.097984211693515
82.967/0001-51,J.P. TECNOLOGIA LTDA,Tecnologia,Abaetetuba,Pará,832813.6,299352.39,11,-1.7248800376438065,-48.8863584428583
38.377/0001-88,A.C. VESTUÁRIO LTDA,Vestuário,Brasil Novo,Pará,531491.67,208822.91,14,-3.26230574049702,-52.51564058540864
57.931/0001-27,J.P. SAÚDE LTDA,Saúde,Marituba,Pará,332468.97,309368.69,1,-1.357656772524702,-48.34117624109195
48.982/0001-89,J.P. TECNOLOGIA LTDA,Tecnologia,Moju,Pará,94710.41,38111.41,14,-1.8812196242339732,-48.76844987960279
81.651/0001-65,A.C. ALIMENTAÇÃO LTDA,Alimentação,Rio Maria,Pará,330464.5,186245.59,5,-7.311304470511088,-50.02284046430704
46.294/0001-24,A.C. LOGÍSTICA LTDA,Logística,São Francisco do Pará,Pará,203835.39,186924.32,1,-1.1650850691945958,-47.79861181853238
92.868/0001-51,A.C. ALIMENTAÇÃO LTDA,Alimentação,Portel,Pará,321392.22,277755.61,1,-1.933714967324588,-50.821063248336706
82.532/0001-66,M.S. ALIMENTAÇÃO LTDA,Alimentação,Igarapé-Miri,Pará,529005.69,332452.52,4,-1.9777309615301129,-48.96081753501805
55.576/0001-82,A.C. SAÚDE LTDA,Saúde,Sapucaia,Pará,384139.89,123365.89,12,-6.943855084312132,-49.680367297351005
77.700/0001-97,J.P. VESTUÁRIO LTDA,Vestuário,Castanhal,Pará,650250.04,447490.41,6,-1.2977721838733838,-47.924857288859435
43.149/0001-76,A.C. SERVIÇOS (MEI) LTDA,Serviços (MEI),São Domingos do Araguaia,Pará,14935.44,8420.02,11,-5.537729374411847,-48.730488251807316
67.268/0001-30,A.C. SERVIÇOS (MEI) LTDA,Serviços (MEI),Curuá,Pará,7150.11,3426.75,10,-1.9041499302988658,-54.118532596137534
77.252/0001-20,J.P. VESTUÁRIO LTDA,Vestuário,Marapanim,Pará,474558.28,268032.52,11,-0.7153377126999982,-47.630511506945034
79.148/0001-83,J.P. VESTUÁRIO LTDA,Vestuário,Belém,Pará,356185.18,154312.85,12,-1.4553208413490413,-48.50265560867925
46.455/0001-57,J.P. SAÚDE LTDA,Saúde,Xinguara,Pará,90286.04,60845.87,4,-7.095229384915702,-49.94521102999016
36.212/0001-24,M.S. SAÚDE LTDA,Saúde,São Domingos do Araguaia,Pará,774553.43,362458.13,9,-5.537834352273043,-48.72953884867233
85.345/0001-13,A.C. VESTUÁRIO LTDA,Vestuário,Salinópolis,Pará,646175.39,309501.04,14,-0.613250457596005,-47.355689881765315
75.752/0001-57,J.P. VESTUÁRIO LTDA,Vestuário,Novo Progresso,Pará,589732.87,366000.9,8,-7.0154806682868065,-55.37953110199744
91.218/0001-75,A.C. SAÚDE LTDA,Saúde,Igarapé-Miri,Pará,498172.22,250127.73,7,-1.9745157057309985,-48.960125864922716
21.367/0001-62,A.C. VESTUÁRIO LTDA,Vestuário,Redenção,Pará,42642.33,25515.19,4,-8.028525980775298,-50.030739139895516
52.633/0001-40,J.P. SERVIÇOS (MEI) LTDA,Serviços (MEI),Breves,Pará,51733.43,16480.29,12,-1.6781916985339707,-50.47931209043912
87.687/0001-49,A.C. LOGÍSTICA LTDA,Logística,Porto de Moz,Pará,197032.18,170343.41,2,-1.746407158312696,-52.23690426167617
22.558/0001-70,A.C. LOGÍSTICA LTDA,Logística,Porto de Moz,Pará,158488.89,96775.55,10,-1.7498743428140382,-52.23567181754558
54.922/0001-67,A.C. ALIMENTAÇÃO LTDA,Alimentação,Barcarena,Pará,531535.37,231128.79,14,-1.5021303791622165,-48.625271303509194
63.575/0001-38,M.S. TECNOLOGIA LTDA,Tecnologia,Uruará,Pará,690937.04,346687.38,10,-3.717360844355442,-53.73548608885323
55.700/0001-37,J.P. LOGÍSTICA LTDA,Logística,Água Azul do Norte,Pará,96147.89,47681.68,12,-6.780251034111902,-50.480587290570895
66.255/0001-34,J.P. VESTUÁRIO LTDA,Vestuário,Paragominas,Pará,764070.32,395731.52,6,-2.997405386333251,-47.35225023938883
29.626/0001-41,J.P. VESTUÁRIO LTDA,Vestuário,Santa Maria do Pará,Pará,573052.96,369738.05,5,-1.3536971148860644,-47.573677138554416
11.707/0001-96,A.C. LOGÍSTICA LTDA,Logística,Castanhal,Pará,67771.84,57026.13,2,-1.2993296945045878,-47.92998912739678
82.145/0001-73,A.C. SERVIÇOS (MEI) LTDA,Serviços (MEI),Santa Maria do Pará,Pará,50486.96,21955.64,11,-1.355539734736386,-47.57520851730249
17.534/0001-25,M.S. TECNOLOGIA LTDA,Tecnologia,Capanema,Pará,324073.08,171831.84,6,-1.194447675658295,-47.18097985225013
91.471/0001-65,M.S. SERVIÇOS (MEI) LTDA,Serviços (MEI),Cachoeira do Arari,Pará,42243.2,23092.43,6,-1.008078643136666,-48.96020477373258
37.997/0001-36,A.C. SERVIÇOS (MEI) LTDA,Serviços (MEI),Magalhães Barata,Pará,1859.86,1290.31,6,-0.7952340534628796,-47.597585586374194
38.992/0001-51,M.S. VESTUÁRIO LTDA,Vestuário,Faro,Pará,204524.73,118474.22,8,-2.172990730402001,-56.74377697011423
39.307/0001-70,J.P. SAÚDE LTDA,Saúde,Canaã dos Carajás,Pará,1034105.26,371810.05,11,-6.495460448240614,-49.876532690456976
15.215/0001-13,J.P. VESTUÁRIO LTDA,Vestuário,Bannach,Pará,627026.9,265056.8,9,-7.3435122751055575,-50.51862304431057
98.337/0001-58,A.C. ALIMENTAÇÃO LTDA,Alimentação,Pacajá,Pará,370229.92,338928.48,1,-3.8370708500407504,-50.635079828142196
42.281/0001-81,M.S. ALIMENTAÇÃO LTDA,Alimentação,Faro,Pará,800902.39,308505.05,12,-2.1704715212247714,-56.745953486572844
57.168/0001-77,M.S. SAÚDE LTDA,Saúde,Belém,Pará,149462.06,121371.79,4,-1.4561884910108849,-48.50220378393146
39.259/0001-78,J.P. VESTUÁRIO LTDA,Vestuário,Igarapé-Açu,Pará,441018.18,217380.14,11,-1.1246699526622346,-47.62225974825572
52.580/0001-93,A.C. SERVIÇOS (MEI) LTDA,Serviços (MEI),Eldorado do Carajás,Pará,12813.19,10038.44,2,-6.101172713829468,-49.35794098439045
21.960/0001-12,A.C. VESTUÁRIO LTDA,Vestuário,Bragança,Pará,259704.46,213024.59,4,-1.055655336680553,-46.76570403936525
47.881/0001-68,A.C. TECNOLOGIA LTDA,Tecnologia,Xinguara,Pará,346965.19,255989.4,4,-7.095164837648771,-49.94202222364188
94.279/0001-13,M.S. ALIMENTAÇÃO LTDA,Alimentação,Portel,Pará,830219.7,419688.34,13,-1.9339124676817492,-50.81924211692118
21.586/0001-67,M.S. SAÚDE LTDA,Saúde,São Geraldo do Araguaia,Pará,779894.26,407532.13,6,-6.402936101976896,-48.537509546422875
92.555/0001-82,A.C. SAÚDE LTDA,Saúde,Curionópolis,Pará,77322.42,38064.98,13,-6.099940195293648,-49.600896557724504
46.997/0001-36,J.P. LOGÍSTICA LTDA,Logística,Palestina do Pará,Pará,531321.02,270023.07,12,-5.741523493156534,-48.31958422179537
72.962/0001-72,J.P. SERVIÇOS (MEI) LTDA,Serviços (MEI),Terra Santa,Pará,48623.13,20921.83,11,-2.1034887184753512,-56.484998599744515
69.571/0001-96,J.P. SERVIÇOS (MEI) LTDA,Serviços (MEI),Curuçá,Pará,12001.91,5073.01,8,-0.7308280165944949,-47.851691257752776
48.757/0001-26,M.S. SAÚDE LTDA,Saúde,Igarapé-Miri,Pará,153329.36,135359.58,1,-1.9778685354757368,-48.960486486217214
38.817/0001-61,A.C. TECNOLOGIA LTDA,Tecnologia,Pau D'Arco,Pará,308350.57,282984.53,1,-7.530458835736704,-50.052711347046284
34.225/0001-26,M.S. LOGÍSTICA LTDA,Logística,Redenção,Pará,85430.42,38617.06,9,-8.026550192138483,-50.03175537715312
53.948/0001-85,M.S. SERVIÇOS (MEI) LTDA,Serviços (MEI),São Félix do Xingu,Pará,24472.72,18171.72,4,-6.640414185020774,-51.98827975519811
16.528/0001-44,A.C. TECNOLOGIA LTDA,Tecnologia,Juruti,Pará,414631.19,184286.78,10,-2.153500299704488,-56.095662168141324
13.530/0001-36,A.C. VESTUÁRIO LTDA,Vestuário,Augusto Corrêa,Pará,313836.59,279503.08,1,-1.0203409022504326,-46.63627649632136
89.684/0001-14,M.S. ALIMENTAÇÃO LTDA,Alimentação,Marapanim,Pará,119647.6,75819.97,6,-0.7150571377117549,-47.63399526383516
85.500/0001-37,M.S. SERVIÇOS (MEI) LTDA,Serviços (MEI),Santa Maria das Barreiras,Pará,24272.69,14754.48,5,-8.867053934159113,-49.71116493876031
29.942/0001-88,J.P. VESTUÁRIO LTDA,Vestuário,Curionópolis,Pará,753684.67,415984.57,6,-6.100599527862372,-49.600083830421084
57.600/0001-47,J.P. LOGÍSTICA LTDA,Logística,Rurópolis,Pará,280113.62,228372.45,2,-4.096964364014574,-54.9053210654866
93.345/0001-64,J.P. TECNOLOGIA LTDA,Tecnologia,Juruti,Pará,900175.74,370519.26,9,-2.1508588305566305,-56.09530458415766
29.327/0001-75,M.S. TECNOLOGIA LTDA,Tecnologia,Itaituba,Pará,567827.65,279994.72,9,-4.274372979151928,-55.983392989042166
81.325/0001-47,A.C. VESTUÁRIO LTDA,Vestuário,Santo Antônio do Tauá,Pará,377983.12,334466.95,2,-1.1538378167958583,-48.12831206875286
86.406/0001-86,A.C. ALIMENTAÇÃO LTDA,Alimentação,Soure,Pará,328387.54,128361.24,12,-0.7142736068416952,-48.525043556782975
44.881/0001-24,M.S. VESTUÁRIO LTDA,Vestuário,Vitória do Xingu,Pará,198112.82,174516.01,1,-2.882832425728823,-52.005349704016616
98.870/0001-51,A.C. SERVIÇOS (MEI) LTDA,Serviços (MEI),Belém,Pará,29537.2,19271.3,3,-1.4531183097759928,-48.50402919250186
12.710/0001-90,M.S. ALIMENTAÇÃO LTDA,Alimentação,Prainha,Pará,601006.03,312164.22,13,-1.810059426872613,-53.48481990136706
70.846/0001-49,J.P. SERVIÇOS (MEI) LTDA,Serviços (MEI),Prainha,Pará,24519.93,17586.15,3,-1.8076215412946819,-53.48225726373041
81.651/0001-83,J.P. LOGÍSTICA LTDA,Logística,Maracanã,Pará,123279.0,42109.04,13,-0.7674720620934309,-47.44883662698309
81.820/0001-53,A.C. LOGÍSTICA LTDA,Logística,São Domingos do Araguaia,Pará,234250.66,196376.11,2,-5.535060285041776,-48.73041354224425
55.651/0001-92,J.P. ALIMENTAÇÃO LTDA,Alimentação,Terra Santa,Pará,58530.74,41987.07,3,-2.1069240918885117,-56.483849723177585
21.409/0001-46,J.P. VESTUÁRIO LTDA,Vestuário,Salinópolis,Pará,204254.09,179894.92,1,-0.6118988000283103,-47.35814654858899
92.971/0001-46,M.S. ALIMENTAÇÃO LTDA,Alimentação,Conceição do Araguaia,Pará,357423.21,309822.88,1,-8.259762709742885,-49.26299670628812
58.115/0001-97,J.P. ALIMENTAÇÃO LTDA,Alimentação,Bom Jesus do Tocantins,Pará,633831.02,246906.22,14,-5.0189859070321114,-48.60533811595121
65.937/0001-71,M.S. LOGÍSTICA LTDA,Logística,São João de Pirabas,Pará,968070.05,324179.83,13,-0.7721469239469845,-47.17202418105648
52.257/0001-12,M.S. TECNOLOGIA LTDA,Tecnologia,Tucuruí,Pará,644453.76,225403.2,14,-3.764830797984022,-49.67372168393287
50.875/0001-38,A.C. ALIMENTAÇÃO LTDA,Alimentação,São Sebastião da Boa Vista,Pará,199129.07,174770.67,2,-1.7201153100812379,-49.5419545068452
97.626/0001-24,J.P. ALIMENTAÇÃO LTDA,Alimentação,Portel,Pará,498103.38,339284.77,6,-1.933667608992815,-50.819394058749836
17.621/0001-13,M.S. VESTUÁRIO LTDA,Vestuário,Santana do Araguaia,Pará,84832.58,76658.36,1,-9.442374310412742,-50.33129975875653
43.449/0001-96,J.P. TECNOLOGIA LTDA,Tecnologia,Salvaterra,Pará,64130.42,35446.7,10,-0.7551787050249336,-48.51750155256319
62.581/0001-16,M.S. LOGÍSTICA LTDA,Logística,Rondon do Pará,Pará,542546.74,392420.78,6,-4.777973429258948,-48.063597140179105
11.741/0001-61,A.C. SERVIÇOS (MEI) LTDA,Serviços (MEI),Bannach,Pará,13767.02,8062.04,5,-7.346609228332048,-50.517343674210004
79.876/0001-72,A.C. SERVIÇOS (MEI) LTDA,Serviços (MEI),Redenção,Pará,23060.98,17456.32,6,-8.025722067513938,-50.030969859137045
26.324/0001-79,M.S. SAÚDE LTDA,Saúde,Pau D'Arco,Pará,216863.88,130011.76,4,-7.530463376004277,-50.05177096989598
19.789/0001-39,J.P. TECNOLOGIA LTDA,Tecnologia,Benevides,Pará,74862.92,56650.14,5,-1.359108302424396,-48.24470661504907
79.237/0001-70,M.S. VESTUÁRIO LTDA,Vestuário,Barcarena,Pará,568124.95,382161.52,4,-1.5037406939503453,-48.62486821753717
66.808/0001-60,J.P. VESTUÁRIO LTDA,Vestuário,São Domingos do Capim,Pará,475262.28,219524.94,7,-1.6752217522975879,-47.77005509835802
85.897/0001-96,J.P. SERVIÇOS (MEI) LTDA,Serviços (MEI),Ourilândia do Norte,Pará,21842.02,19107.06,1,-6.755400307333677,-51.088147556687126
12.813/0001-74,A.C. VESTUÁRIO LTDA,Vestuário,Inhangapi,Pará,370785.17,165252.31,9,-1.4269096164694768,-47.919477051539374
80.387/0001-22,M.S. LOGÍSTICA LTDA,Logística,Nova Esperança do Piriá,Pará,446068.69,335304.5,3,-2.2630674656536183,-46.9634312271091
78.513/0001-72,M.S. TECNOLOGIA LTDA,Tecnologia,Moju,Pará,1076370.78,420896.67,9,-1.8856274357880112,-48.769162673558505
11.913/0001-81,J.P. LOGÍSTICA LTDA,Logística,Faro,Pará,152589.85,87092.28,9,-2.1749144038226285,-56.746718393374124
73.214/0001-18,A.C. VESTUÁRIO LTDA,Vestuário,Conceição do Araguaia,Pará,382276.81,309123.58,3,-8.257635909388402,-49.262701799771804
51.691/0001-36,A.C. LOGÍSTICA LTDA,Logística,Tomé-Açu,Pará,602238.08,316991.93,6,-2.41675755109279,-48.15079825580924
23.869/0001-46,M.S. SERVIÇOS (MEI) LTDA,Serviços (MEI),Santarém Novo,Pará,47431.96,21410.44,14,-0.9276622724233888,-47.39344635847257
19.198/0001-79,M.S. LOGÍSTICA LTDA,Logística,Capitão Poço,Pará,489763.01,327393.79,6,-1.7430298114525684,-47.05606211005833
11.142/0001-43,J.P. SAÚDE LTDA,Saúde,Castanhal,Pará,145827.01,107556.26,7,-1.2960461788374547,-47.92445416593826
32.991/0001-45,A.C. LOGÍSTICA LTDA,Logística,Juruti,Pará,226106.12,182454.34,3,-2.153646950170994,-56.09625072615838
56.144/0001-82,J.P. ALIMENTAÇÃO LTDA,Alimentação,Dom Eliseu,Pará,976583.29,438914.72,7,-4.283621192232677,-47.50056168435472
61.128/0001-20,M.S. LOGÍSTICA LTDA,Logística,Igarapé-Açu,Pará,248926.23,165485.02,7,-1.1246192449987076,-47.623297894901214
84.266/0001-54,A.C. LOGÍSTICA LTDA,Logística,Vitória do Xingu,Pará,883674.01,291594.04,14,-2.8812058926528175,-52.00304622009095
81.730/0001-38,M.S. SERVIÇOS (MEI) LTDA,Serviços (MEI),Almeirim,Pará,30347.83,14284.79,7,-1.5238628014276812,-52.58113134087557
63.967/0001-47,M.S. VESTUÁRIO LTDA,Vestuário,Melgaço,Pará,271332.07,128016.7,10,-1.6633938327288886,-50.71497329384422
90.415/0001-42,M.S. SERVIÇOS (MEI) LTDA,Serviços (MEI),Redenção,Pará,11373.0,5959.73,6,-8.026284686876107,-50.03125599906938
77.648/0001-87,J.P. ALIMENTAÇÃO LTDA,Alimentação,Benevides,Pará,690168.88,271743.68,13,-1.3598062801283053,-48.24603087861304
28.700/0001-13,J.P. ALIMENTAÇÃO LTDA,Alimentação,Rondon do Pará,Pará,475027.84,303346.82,4,-4.774450049470107,-48.06650977970307
78.794/0001-14,A.C. LOGÍSTICA LTDA,Logística,Mocajuba,Pará,121898.06,104274.84,2,-2.5864396354515495,-49.50429532066621
11.620/0001-54,A.C. LOGÍSTICA LTDA,Logística,Santarém,Pará,180707.02,139402.92,2,-2.4412627868839523,-54.705444938198006
37.326/0001-32,M.S. LOGÍSTICA LTDA,Logística,Salvaterra,Pará,786622.22,426927.94,5,-0.7531623659173361,-48.51492446302665
40.446/0001-85,A.C. TECNOLOGIA LTDA,Tecnologia,Salvaterra,Pará,458493.38,206853.28,11,-0.7545617975300091,-48.51874676097334
36.854/0001-34,J.P. SERVIÇOS (MEI) LTDA,Serviços (MEI),Ananindeua,Pará,28468.86,22165.51,2,-1.3641502544820985,-48.36939398841814
61.276/0001-11,J.P. LOGÍSTICA LTDA,Logística,Chaves,Pará,536404.12,420219.2,3,0.15606479252475594,-49.90933666798653
91.279/0001-86,J.P. TECNOLOGIA LTDA,Tecnologia,Redenção,Pará,566250.58,251948.69,10,-8.02849989524108,-50.02807015953169
66.812/0001-59,J.P. VESTUÁRIO LTDA,Vestuário,Benevides,Pará,503150.89,339719.58,8,-1.3600745033538904,-48.24754940076993
92.340/0001-25,M.S. SAÚDE LTDA,Saúde,Cumaru do Norte,Pará,718019.17,355501.73,7,-7.83375367944129,-50.7790420275751
90.244/0001-21,J.P. SAÚDE LTDA,Saúde,Piçarra,Pará,364532.32,243922.11,5,-6.439446727220557,-48.87336303647289
88.985/0001-33,M.S. ALIMENTAÇÃO LTDA,Alimentação,Anajás,Pará,331977.32,229146.6,5,-0.986026044154342,-49.94257965004935
82.906/0001-16,A.C. VESTUÁRIO LTDA,Vestuário,São João da Ponta,Pará,461125.66,247947.93,6,-0.8543075078011866,-47.9214526635212
24.716/0001-62,J.P. LOGÍSTICA LTDA,Logística,Santa Izabel do Pará,Pará,577140.64,379594.38,6,-1.2985008995763323,-48.159559346404265
96.888/0001-28,A.C. VESTUÁRIO LTDA,Vestuário,Ulianópolis,Pará,443590.77,323157.6,4,-3.7425877772602796,-47.32816548548745
83.855/0001-32,A.C. VESTUÁRIO LTDA,Vestuário,Santa Luzia do Pará,Pará,702953.44,416247.21,5,-1.51251859594843,-46.9093025640201
56.311/0001-63,J.P. LOGÍSTICA LTDA,Logística,Xinguara,Pará,380310.12,219237.36,7,-7.095640563750531,-49.94122154972585
45.360/0001-71,A.C. SAÚDE LTDA,Saúde,Inhangapi,Pará,432890.32,391046.18,2,-1.426445124505601,-47.915643754392775
49.469/0001-96,M.S. SAÚDE LTDA,Saúde,Melgaço,Pará,790347.43,296913.06,12,-1.658145803798858,-50.716603084689524
88.549/0001-89,A.C. SERVIÇOS (MEI) LTDA,Serviços (MEI),Cumaru do Norte,Pará,5302.87,3622.77,4,-7.832893281563868,-50.78396584499841
37.677/0001-88,M.S. ALIMENTAÇÃO LTDA,Alimentação,Curuçá,Pará,535779.35,189570.68,14,-0.7287814222951157,-47.849377874253165
35.632/0001-87,A.C. SAÚDE LTDA,Saúde,Maracanã,Pará,288873.33,150334.11,6,-0.7665894331984573,-47.448013748921944
63.455/0001-11,M.S. VESTUÁRIO LTDA,Vestuário,Moju,Pará,685479.39,425136.62,8,-1.8820286258498284,-48.76888991568068
69.561/0001-13,M.S. LOGÍSTICA LTDA,Logística,Ananindeua,Pará,443195.71,327764.76,2,-1.3654890082712403,-48.3736455121303
46.462/0001-53,M.S. LOGÍSTICA LTDA,Logística,Capitão Poço,Pará,39961.15,32139.22,4,-1.7463630203179528,-47.06137426642424
60.396/0001-39,A.C. ALIMENTAÇÃO LTDA,Alimentação,Capanema,Pará,59066.38,46210.57,2,-1.1975467201723458,-47.18244124473697
64.684/0001-44,A.C. SERVIÇOS (MEI) LTDA,Serviços (MEI),Paragominas,Pará,36141.58,24028.44,10,-2.993718467781303,-47.35213369236914
22.258/0001-82,M.S. SERVIÇOS (MEI) LTDA,Serviços (MEI),Altamira,Pará,33373.68,18478.72,8,-3.2022061774244146,-52.208126474492346
15.993/0001-15,A.C. TECNOLOGIA LTDA,Tecnologia,Senador José Porfírio,Pará,400597.79,301823.76,5,-2.5886175951624293,-51.94738107890627
94.433/0001-85,J.P. SERVIÇOS (MEI) LTDA,Serviços (MEI),Colares,Pará,3218.7,2342.91,4,-0.9307139615179659,-48.28393503376159
93.290/0001-44,A.C. ALIMENTAÇÃO LTDA,Alimentação,Juruti,Pará,642618.29,287469.84,9,-2.1543541126522032,-56.09739889508048
25.953/0001-50,A.C. LOGÍSTICA LTDA,Logística,Uruará,Pará,1049154.03,418451.41,13,-3.7209506591098083,-53.736650834081395
67.769/0001-32,M.S. TECNOLOGIA LTDA,Tecnologia,Vitória do Xingu,Pará,492237.44,317571.37,6,-2.879763637449599,-52.008356773067945
70.195/0001-46,A.C. TECNOLOGIA LTDA,Tecnologia,Nova Esperança do Piriá,Pará,852111.24,340127.89,11,-2.2606160663135855,-46.9670146962854
85.442/0001-33,M.S. TECNOLOGIA LTDA,Tecnologia,Novo Repartimento,Pará,366153.22,260391.73,4,-4.251362930420893,-49.93941109664021
98.794/0001-26,A.C. ALIMENTAÇÃO LTDA,Alimentação,Água Azul do Norte,Pará,859398.98,294005.97,11,-6.782409597878949,-50.482426133171174
89.172/0001-58,J.P. ALIMENTAÇÃO LTDA,Alimentação,Paragominas,Pará,198898.72,135146.48,7,-2.9952434689472986,-47.35315664488662
44.731/0001-68,A.C. SERVIÇOS (MEI) LTDA,Serviços (MEI),Palestina do Pará,Pará,26523.82,16040.13,11,-5.740240492860694,-48.31608027457597
37.990/0001-61,J.P. LOGÍSTICA LTDA,Logística,Gurupá,Pará,377702.16,345665.91,1,-1.4062952205367172,-51.64229898517693
73.663/0001-19,M.S. SAÚDE LTDA,Saúde,Almeirim,Pará,356387.45,256477.03,4,-1.5228409534845229,-52.57875314148018
97.358/0001-75,J.P. VESTUÁRIO LTDA,Vestuário,São João de Pirabas,Pará,178341.91,143971.93,2,-0.7716800341519799,-47.17298223156961
40.419/0001-37,J.P. SERVIÇOS (MEI) LTDA,Serviços (MEI),Belterra,Pará,45658.18,15211.43,12,-3.056734033956153,-54.94480175450789
29.681/0001-17,M.S. ALIMENTAÇÃO LTDA,Alimentação,Quatipuru,Pará,586381.96,427630.09,3,-0.897998043585282,-47.005960089632325
16.502/0001-70,M.S. LOGÍSTICA LTDA,Logística,Santarém,Pará,175131.3,67847.04,10,-2.4437312959412187,-54.70555884946027
44.686/0001-44,A.C. LOGÍSTICA LTDA,Logística,Inhangapi,Pará,84183.47,69275.16,3,-1.430555089385352,-47.917165647658116
10.626/0001-31,J.P. SERVIÇOS (MEI) LTDA,Serviços (MEI),Santa Maria do Pará,Pará,24349.8,15637.33,11,-1.355602104505918,-47.578331001781685
10.990/0001-71,M.S. VESTUÁRIO LTDA,Vestuário,Anajás,Pará,1103596.75,391844.13,14,-0.9881783339266426,-49.938026787374795
31.498/0001-41,J.P. ALIMENTAÇÃO LTDA,Alimentação,Pau D'Arco,Pará,204327.6,91846.92,13,-7.533696792521658,-50.053950746259396
87.873/0001-26,M.S. TECNOLOGIA LTDA,Tecnologia,Belém,Pará,337186.36,294801.63,2,-1.454585878736775,-48.50366394972442
50.210/0001-48,J.P. ALIMENTAÇÃO LTDA,Alimentação,São Félix do Xingu,Pará,762719.38,427721.18,12,-6.6458138982159936,-51.993063396970406
85.162/0001-80,A.C. VESTUÁRIO LTDA,Vestuário,São Sebastião da Boa Vista,Pará,168181.45,86014.7,11,-1.7202224591710655,-49.54262750631861
12.178/0001-61,J.P. TECNOLOGIA LTDA,Tecnologia,Sapucaia,Pará,454239.07,207938.47,13,-6.947495376403721,-49.6780248591815
12.912/0001-87,M.S. SAÚDE LTDA,Saúde,Santa Bárbara do Pará,Pará,467233.32,372241.75,2,-1.223786879527591,-48.28966280083014
85.691/0001-19,M.S. VESTUÁRIO LTDA,Vestuário,Marituba,Pará,381225.53,289832.47,4,-1.3541211972121567,-48.34066802599433
21.693/0001-85,A.C. LOGÍSTICA LTDA,Logística,São Sebastião da Boa Vista,Pará,200063.81,104210.41,8,-1.7175362692163512,-49.542228828517175
92.453/0001-59,J.P. SERVIÇOS (MEI) LTDA,Serviços (MEI),Medicilândia,Pará,17866.07,9891.35,9,-3.445805282221755,-52.887820544541924
29.111/0001-27,M.S. SAÚDE LTDA,Saúde,Salinópolis,Pará,64684.95,30070.74,7,-0.6150697225897196,-47.35778191531554
41.589/0001-42,A.C. SAÚDE LTDA,Saúde,São Domingos do Capim,Pará,152483.33,55544.79,14,-1.671970733411196,-47.768846993667275
68.645/0001-78,J.P. VESTUÁRIO LTDA,Vestuário,São Francisco do Pará,Pará,719023.48,324270.54,11,-1.1688694167195643,-47.79358346753629
59.517/0001-89,J.P. TECNOLOGIA LTDA,Tecnologia,São Domingos do Araguaia,Pará,85561.33,47359.23,7,-5.540916396223978,-48.72997854676471
61.325/0001-54,A.C. SERVIÇOS (MEI) LTDA,Serviços (MEI),Cachoeira do Arari,Pará,20429.18,12914.14,5,-1.0137864743720888,-48.963475225404686
93.952/0001-74,A.C. TECNOLOGIA LTDA,Tecnologia,Santarém Novo,Pará,477718.06,244421.45,10,-0.9268492656059955,-47.39371574962305
80.824/0001-32,A.C. TECNOLOGIA LTDA,Tecnologia,Quatipuru,Pará,1245765.26,379667.1,13,-0.8972193207912993,-47.00361073953189
78.904/0001-29,M.S. SAÚDE LTDA,Saúde,Faro,Pará,336801.39,221322.87,3,-2.1718276213501926,-56.7438641155806
75.114/0001-42,M.S. SERVIÇOS (MEI) LTDA,Serviços (MEI),Tucumã,Pará,43158.09,21178.96,8,-6.746578419552735,-50.0491984640245
62.266/0001-63,A.C. SERVIÇOS (MEI) LTDA,Serviços (MEI),São Sebastião da Boa Vista,Pará,36979.78,17630.14,10,-1.7157447296059651,-49.53976823062311
87.943/0001-69,M.S. ALIMENTAÇÃO LTDA,Alimentação,Marituba,Pará,1304262.83,414398.53,13,-1.3553515443229107,-48.34163483982541
33.737/0001-29,A.C. LOGÍSTICA LTDA,Logística,Bannach,Pará,293409.61,162172.48,7,-7.347877132439144,-50.51990596220508
16.245/0001-97,A.C. VESTUÁRIO LTDA,Vestuário,Santa Izabel do Pará,Pará,132760.8,112806.8,3,-1.297891945425425,-48.15859867965199
39.847/0001-84,M.S. ALIMENTAÇÃO LTDA,Alimentação,Oriximiná,Pará,146673.33,88476.26,4,-1.763183391521743,-55.8663640513987
56.408/0001-65,A.C. LOGÍSTICA LTDA,Logística,Benevides,Pará,43879.21,39617.61,2,-1.3616775961435468,-48.24463178086115
81.321/0001-48,J.P. TECNOLOGIA LTDA,Tecnologia,Santana do Araguaia,Pará,447485.16,403817.9,2,-9.4391361523583,-50.33268946799236
26.678/0001-98,A.C. SERVIÇOS (MEI) LTDA,Serviços (MEI),Magalhães Barata,Pará,12587.8,11536.59,1,-0.7947607082523982,-47.59326369975153
39.347/0001-66,M.S. SAÚDE LTDA,Saúde,Igarapé-Açu,Pará,414996.85,153397.08,13,-1.1290205598438616,-47.62015532112954
56.351/0001-68,A.C. SERVIÇOS (MEI) LTDA,Serviços (MEI),Augusto Corrêa,Pará,3273.51,1704.03,9,-1.0226302832046539,-46.63503390577291
76.198/0001-63,M.S. LOGÍSTICA LTDA,Logística,Mãe do Rio,Pará,1004644.56,440657.68,14,-2.0488545599842634,-47.549841146688884
18.321/0001-80,A.C. VESTUÁRIO LTDA,Vestuário,Piçarra,Pará,333968.84,141250.74,10,-6.442922805679107,-48.87051253272693
37.398/0001-26,J.P. SAÚDE LTDA,Saúde,Pacajá,Pará,666722.43,278871.86,10,-3.8380932955700273,-50.63360739336591
40.983/0001-90,A.C. LOGÍSTICA LTDA,Logística,Marapanim,Pará,325312.73,307611.73,1,-0.7164513889892821,-47.6290488296235
13.498/0001-89,J.P. SERVIÇOS (MEI) LTDA,Serviços (MEI),Breves,Pará,16729.12,10227.19,11,-1.6793367412295392,-50.483384406029124
65.885/0001-98,J.P. LOGÍSTICA LTDA,Logística,Santarém,Pará,238925.67,164474.53,7,-2.4435060313705943,-54.710140555645346
84.738/0001-15,A.C. ALIMENTAÇÃO LTDA,Alimentação,Oeiras do Pará,Pará,297340.48,220255.7,4,-2.001783548511033,-49.85662525118984
16.164/0001-27,A.C. LOGÍSTICA LTDA,Logística,Santa Luzia do Pará,Pará,207526.84,92389.9,10,-1.5175095261050529,-46.90852951748279
68.480/0001-50,M.S. ALIMENTAÇÃO LTDA,Alimentação,Muaná,Pará,119424.12,65463.86,10,-1.5298415625555395,-49.21803268645498
66.299/0001-29,M.S. LOGÍSTICA LTDA,Logística,Parauapebas,Pará,450886.15,347407.32,3,-6.068594469337236,-49.899689741939106
31.620/0001-46,A.C. VESTUÁRIO LTDA,Vestuário,Senador José Porfírio,Pará,739434.39,332735.44,10,-2.5850697688948947,-51.95018994803137
68.895/0001-56,A.C. LOGÍSTICA LTDA,Logística,Terra Santa,Pará,191252.56,176520.6,1,-2.1027331621057113,-56.4830841478327
21.284/0001-51,M.S. VESTUÁRIO LTDA,Vestuário,Medicilândia,Pará,394079.75,370329.31,1,-3.441718252662748,-52.887648477967424
85.455/0001-20,A.C. VESTUÁRIO LTDA,Vestuário,São Félix do Xingu,Pará,51429.89,24888.86,8,-6.641489838676,-51.98812484797449
20.406/0001-75,J.P. ALIMENTAÇÃO LTDA,Alimentação,Igarapé-Miri,Pará,128349.4,113123.19,1,-1.9784325109063683,-48.96274950649943
28.307/0001-73,M.S. SERVIÇOS (MEI) LTDA,Serviços (MEI),Capanema,Pará,4769.91,2022.13,12,-1.1940171611505745,-47.17834276292209
52.117/0001-61,A.C. LOGÍSTICA LTDA,Logística,Medicilândia,Pará,149609.72,140591.89,1,-3.4455155944803786,-52.88453276108317
83.392/0001-35,A.C. ALIMENTAÇÃO LTDA,Alimentação,Nova Ipixuna,Pará,416624.31,253532.39,7,-4.911033089118545,-49.30917702583363
70.386/0001-22,M.S. LOGÍSTICA LTDA,Logística,Goianésia do Pará,Pará,311572.57,145614.06,9,-3.84444332232767,-49.09557153510097
44.974/0001-54,J.P. SAÚDE LTDA,Saúde,Santa Izabel do Pará,Pará,449749.37,151833.72,12,-1.2979591596625515,-48.163033499823435
29.202/0001-51,M.S. SERVIÇOS (MEI) LTDA,Serviços (MEI),Concórdia do Pará,Pará,16074.88,11856.59,2,-1.9893529914854702,-47.95229784536512
22.137/0001-77,M.S. SERVIÇOS (MEI) LTDA,Serviços (MEI),Viseu,Pará,17572.37,13284.93,2,-1.1973088912455867,-46.14301740965717
28.398/0001-47,J.P. VESTUÁRIO LTDA,Vestuário,Santo Antônio do Tauá,Pará,514200.35,204118.89,13,-1.1523836882855554,-48.12511791425505
51.854/0001-40,A.C. SAÚDE LTDA,Saúde,Breves,Pará,358220.72,273462.93,2,-1.6787209190817491,-50.48274851635175
60.659/0001-53,A.C. TECNOLOGIA LTDA,Tecnologia,Porto de Moz,Pará,232126.24,167262.55,3,-1.7452938962839184,-52.235179832139835
11.605/0001-41,A.C. TECNOLOGIA LTDA,Tecnologia,Bujaru,Pará,35346.18,24918.64,5,-1.5129636071336567,-48.04314983785635
47.301/0001-74,J.P. SAÚDE LTDA,Saúde,Garrafão do Norte,Pará,427200.51,185703.03,8,-2.2221724304970847,-47.05230514539973
85.772/0001-48,M.S. VESTUÁRIO LTDA,Vestuário,São João da Ponta,Pará,913675.46,279481.15,13,-0.8508998989181098,-47.91855672608793
74.610/0001-64,A.C. LOGÍSTICA LTDA,Logística,Terra Alta,Pará,164898.52,96726.35,5,-1.037900532892794,-47.913382688445246
25.510/0001-75,J.P. ALIMENTAÇÃO LTDA,Alimentação,Santa Luzia do Pará,Pará,146086.86,50562.16,13,-1.5131960166616039,-46.91078119613708
10.605/0001-13,A.C. ALIMENTAÇÃO LTDA,Alimentação,Curionópolis,Pará,278617.48,195645.51,3,-6.099287070611146,-49.59832945429754
43.185/0001-81,A.C. TECNOLOGIA LTDA,Tecnologia,Novo Progresso,Pará,284323.51,256373.06,1,-7.018451463345596,-55.38324933597117
15.903/0001-90,J.P. SERVIÇOS (MEI) LTDA,Serviços (MEI),Igarapé-Miri,Pará,33299.03,22708.97,4,-1.9765721523393105,-48.95825283993813
77.633/0001-92,J.P. SAÚDE LTDA,Saúde,Piçarra,Pará,291596.97,196066.9,4,-6.440211747922111,-48.87186136651756
73.388/0001-28,A.C. TECNOLOGIA LTDA,Tecnologia,Quatipuru,Pará,819533.59,448626.49,9,-0.8976808189989142,-47.0019145952046
87.994/0001-47,J.P. LOGÍSTICA LTDA,Logística,Soure,Pará,351292.38,256070.97,7,-0.7183142975396317,-48.520840447872814
29.752/0001-46,M.S. SAÚDE LTDA,Saúde,Ipixuna do Pará,Pará,607291.31,316891.49,7,-2.5622496988725407,-47.49877287565362
88.613/0001-60,J.P. VESTUÁRIO LTDA,Vestuário,Barcarena,Pará,100580.92,47203.48,7,-1.5043524520517046,-48.62443869392496
44.339/0001-43,J.P. ALIMENTAÇÃO LTDA,Alimentação,Santo Antônio do Tauá,Pará,432883.52,320261.78,7,-1.1509661296374478,-48.12574517910997
52.117/0001-43,A.C. VESTUÁRIO LTDA,Vestuário,Quatipuru,Pará,386877.6,144355.72,13,-0.8964719690890058,-47.00556332875622
13.390/0001-88,A.C. LOGÍSTICA LTDA,Logística,Baião,Pará,385741.2,152871.55,10,-2.794325768687316,-49.673827767136736
54.443/0001-83,A.C. LOGÍSTICA LTDA,Logística,Curuçá,Pará,287087.73,159156.16,14,-0.7288595437724041,-47.848964993499244
42.595/0001-33,J.P. TECNOLOGIA LTDA,Tecnologia,Muaná,Pará,568320.4,276919.51,8,-1.5266455356072046,-49.21899964777843
92.674/0001-12,M.S. ALIMENTAÇÃO LTDA,Alimentação,Baião,Pará,171309.44,123602.54,6,-2.792304610663803,-49.67856582944398
74.381/0001-88,M.S. SERVIÇOS (MEI) LTDA,Serviços (MEI),Rio Maria,Pará,29011.07,16858.06,14,-7.312912029743586,-50.01891929657929
80.326/0001-39,J.P. VESTUÁRIO LTDA,Vestuário,Acará,Pará,402634.82,318344.63,2,-1.9600978318698665,-48.199662914830334
80.427/0001-73,M.S. LOGÍSTICA LTDA,Logística,Juruti,Pará,851474.36,341219.35,9,-2.154186204235084,-56.09464068327786
14.960/0001-66,M.S. TECNOLOGIA LTDA,Tecnologia,Breves,Pará,115895.34,65816.22,10,-1.6782731788623004,-50.47892368996526
78.101/0001-92,A.C. SERVIÇOS (MEI) LTDA,Serviços (MEI),Muaná,Pará,18133.81,16989.73,1,-1.530451748496309,-49.214696441859935
25.934/0001-65,M.S. ALIMENTAÇÃO LTDA,Alimentação,Igarapé-Miri,Pará,172285.93,86347.26,9,-1.9785769518169587,-48.9619764316984
49.228/0001-33,J.P. ALIMENTAÇÃO LTDA,Alimentação,Curionópolis,Pará,442456.4,233162.79,9,-6.103317472440072,-49.599662791587875
70.175/0001-25,J.P. ALIMENTAÇÃO LTDA,Alimentação,Breu Branco,Pará,599316.95,421292.16,4,-3.7524566024853514,-49.56315502227842
65.604/0001-64,J.P. LOGÍSTICA LTDA,Logística,Pau D'Arco,Pará,202154.81,83093.07,10,-7.529324353948419,-50.05367518609986
56.695/0001-16,A.C. SAÚDE LTDA,Saúde,Maracanã,Pará,1022092.53,445745.65,10,-0.7639874499768631,-47.448314699737054
85.321/0001-54,J.P. TECNOLOGIA LTDA,Tecnologia,Santa Bárbara do Pará,Pará,56214.04,53431.41,1,-1.2274706952401824,-48.289512742718216
41.450/0001-61,J.P. LOGÍSTICA LTDA,Logística,Santarém Novo,Pará,64459.44,33472.08,13,-0.9251241524873067,-47.39722882246297
26.363/0001-46,J.P. ALIMENTAÇÃO LTDA,Alimentação,Ipixuna do Pará,Pará,53119.84,34628.85,6,-2.5584117599048977,-47.49930312137453
65.447/0001-56,A.C. VESTUÁRIO LTDA,Vestuário,Pau D'Arco,Pará,388399.81,165681.26,8,-7.52948724034861,-50.052384595118575
63.436/0001-80,J.P. VESTUÁRIO LTDA,Vestuário,Muaná,Pará,732497.69,415091.22,9,-1.526164419257875,-49.214779951305246
47.260/0001-33,M.S. VESTUÁRIO LTDA,Vestuário,Portel,Pará,883240.73,436078.61,13,-1.9382100769712631,-50.81806389655062
71.165/0001-53,A.C. SAÚDE LTDA,Saúde,Vitória do Xingu,Pará,1250364.43,403626.64,12,-2.8847434324798376,-52.008398335903024
52.275/0001-38,A.C. ALIMENTAÇÃO LTDA,Alimentação,Juruti,Pará,372581.7,168318.09,12,-2.1508902803504752,-56.09747745768377
25.734/0001-97,A.C. SERVIÇOS (MEI) LTDA,Serviços (MEI),São Sebastião da Boa Vista,Pará,18576.37,13340.77,5,-1.7193276008208682,-49.5418036361949
35.252/0001-24,A.C. LOGÍSTICA LTDA,Logística,Itaituba,Pará,731760.7,439542.76,5,-4.278772723222748,-55.98266416993173
48.834/0001-50,J.P. VESTUÁRIO LTDA,Vestuário,Peixe-Boi,Pará,273435.76,105125.47,14,-1.192095698932891,-47.30881210450344
31.688/0001-72,J.P. SERVIÇOS (MEI) LTDA,Serviços (MEI),Palestina do Pará,Pará,47590.56,20853.1,11,-5.744022512561896,-48.31599415842856
34.688/0001-38,M.S. SERVIÇOS (MEI) LTDA,Serviços (MEI),Óbidos,Pará,38191.11,17830.99,11,-1.9197308075363873,-55.516361725160515
28.339/0001-37,J.P. SERVIÇOS (MEI) LTDA,Serviços (MEI),Salvaterra,Pará,12102.45,7172.11,7,-0.7538455699128577,-48.51333421875256
72.830/0001-89,M.S. TECNOLOGIA LTDA,Tecnologia,Breu Branco,Pará,295691.47,155798.74,7,-3.754573381901837,-49.566979575750636
28.298/0001-91,M.S. ALIMENTAÇÃO LTDA,Alimentação,Monte Alegre,Pará,258691.51,155010.21,12,-2.0094686301176585,-54.0702737789465
